etablissement_id_paysage;uo_lib;nom_court;sigle;type_d_etablissement;typologie_d_universites_et_assimiles;secteur_d_etablissement;localisation;LAT;LONG;uai;anciens_codes_uai;identifiant_wikidata;date_creation;texte_de_ref_creation_lib;texte_de_ref_creation;com_code;com_nom;uucr_id;uucr_nom;dep_id;dep_nom;aca_id;aca_nom;reg_id;reg_nom;reg_id_old;reg_nom_old;mention_distribution;adresse_uai;lieu_dit_uai;boite_postale_uai;code_postal_uai;localite_acheminement_uai;pays_etranger_acheminement;inscrits_2010;inscrits_2011;inscrits_2012;inscrits_2013;inscrits_2014;inscrits_2015;inscrits_2016;inscrits_2017;inscrits_2018;inscrits_2019;inscrits_2020;inscrits_2021;inscrits_2022
1tI7C;Centrale Méditerranée;;;École;;public;Provence-Alpes-Côte d'Azur>Aix-Marseille>Bouches-du-Rhône>Marseille-Aix-en-Provence>Marseille 13e;43.34136;5.43829;0133774G;"0132396J;0133401B;0130219T";Q273454;02/10/2003;Décret n° 2003-929 du 29 septembre 2003 portant création de l'Ecole généraliste d'ingénieurs de Marseille;https://www.legifrance.gouv.fr/jorf/id/JORFTEXT000000794748/;13213;Marseille 13e;UU00759;Marseille-Aix-en-Provence;D013;Bouches-du-Rhône;A02;Aix-Marseille;R93;Provence-Alpes-Côte d'Azur;R93;Provence-Alpes-Côte d'Azur;Pôle de l'Étoile - Technopôle de Château-Gombert;38 rue Frédéric-Joliot-Curie;;;13451;Marseille CEDEX 13;France;658;701;796;875;919;996;1049;1101;1111.0;1127.0;1155.0;1165.0;1105.0
BOl78;École française de Rome;EFR;;Autre établissement;;public;Étranger>Rome;41.89488;12.47096;1270009V;;Q273542;1875;;;;Rome;;Rome;D999;Étranger;A00;Étranger;R99;Étranger;R99;Étranger;;Piazza Farnese 67;;;186;Roma;Italie;;;;;;;;;;;;;
IlIW8;École nationale supérieure de mécanique et d'aérotechnique de Poitiers;;ISAE-ENSMA;École;;public;Nouvelle-Aquitaine>Poitiers>Vienne>Poitiers>Chasseneuil-du-Poitou;46.661;0.362013;0860073M;;Q391044;03/04/1948;;;86062;Chasseneuil-du-Poitou;UU86601;Poitiers;D086;Vienne;A13;Poitiers;R75;Nouvelle-Aquitaine;R54;Poitou-Charentes;Téléport 2;1 avenue Clément Ader;;BP 40109;86961;Futuroscope Chasseneuil CEDEX;France;631;629;661;673;689;712;723;716;722.0;771.0;728.0;718.0;768.0
kWved;École normale supérieure de Lyon;ENS de Lyon;ENS Lyon;École;;public;Auvergne-Rhône-Alpes>Lyon>Rhône>Lyon>Lyon 7e;45.7337;4.83376;0694123G;"0693259T;0693817Z;0920812H";Q10159;01/01/2010;;;69387;Lyon 7e;UU00760;Lyon;D069;Rhône;A10;Lyon;R84;Auvergne-Rhône-Alpes;R82;Rhône-Alpes;;15 parvis René Descartes;;BP 7000;69342;Lyon CEDEX 07;France;1528;1612;1790;1820;2053;1928;1954;1911;1963.0;2102.0;2169.0;2346.0;2297.0
3Ur31;École supérieure des techniques aéronautiques et de construction automobile;ESTACA;;École;;privé;Île-de-France>Versailles>Yvelines>Paris>Montigny-le-Bretonneux;48.787656;2.041412;"0783664J;0921929X";;Q3578506;1925;;;78423;Montigny-le-Bretonneux;UU00851;Paris;D078;Yvelines;A25;Versailles;R11;Île-de-France;R11;Île-de-France;;12 avenue Paul Delouvrier;;CS 20749;78066;Montigny-le-Bretonneux;France;;;;;;;;;;;;;
khs4b;École supérieure d'ingénieurs des travaux de la construction de Paris;ESITC Paris;ESITC Paris;École;;privé;Île-de-France>Créteil>Val-de-Marne>Paris>Arcueil;48.80497;2.3256;0941954N;;Q3578412;1992;;;94003;Arcueil;UU00851;Paris;D094;Val-de-Marne;A24;Créteil;R11;Île-de-France;R11;Île-de-France;;79 avenue Aristide Briand;;CS 80433;94234;Arcueil CEDEX;France;;;;;;;;;;;;;
XHkD5;Institut supérieur du bâtiment et des travaux publics;ISBA TP;;École;;privé;Provence-Alpes-Côte d'Azur>Aix-Marseille>Bouches-du-Rhône>Marseille-Aix-en-Provence>Marseille 9e;43.247519881264544;5.437304377555848;0130238N;;Q60846049;1952;;;13209;Marseille 9e;UU00759;Marseille-Aix-en-Provence;D013;Bouches-du-Rhône;A02;Aix-Marseille;R93;Provence-Alpes-Côte d'Azur;R93;Provence-Alpes-Côte d'Azur;;11 avenue de Luminy;;;13009;Marseille;France;;;;;;;;;;;;;
n1W55;Université de Perpignan Via Domitia;;UPVD;Université;Université pluridisciplinaire hors santé;public;Occitanie>Montpellier>Pyrénées-Orientales>Perpignan;42.6844;2.89854;0660437S;;Q304872;01/10/1979;Décret n° 79-149 du 22 février 1979 portant transformation en université du centre universitaire de Perpignan;https://www.legifrance.gouv.fr/jorf/id/JORFTEXT000000702313;66136;Perpignan;UU66701;Perpignan;D066;Pyrénées-Orientales;A11;Montpellier;R76;Occitanie;R91;Languedoc-Roussillon;;52 avenue Paul Alduy;;;66860;Perpignan CEDEX 9;France;9842;8781;8583;8636;8672;8598;8739;8849;8837.0;8768.0;8691.0;8569.0;8038.0
HgdTq;École nationale des sciences géographiques;ENSG-Géomatique;;École;;public;Île-de-France>Créteil>Seine-et-Marne>Paris>Champs-sur-Marne;48.84105;2.58736;0772496V;;Q3578152;01/01/1941;;;77083;Champs-sur-Marne;UU00851;Paris;D077;Seine-et-Marne;A24;Créteil;R11;Île-de-France;R11;Île-de-France;Cité Descartes;6 et 8 avenue Blaise Pascal;;;77455;Marne la Vallée CEDEX 2;France;;;;;;;;;;;;;
QeAil;Ecole Nationale Supérieure des Beaux-Arts de Paris;Beaux-Arts de Paris;ENSBA;École;;public;Île-de-France>Paris>Paris 6e;48.856491;2.334499;0753667D;;Q273593;1794;;;75106;Paris 6e;UU00851;Paris;D075;Paris;A01;Paris;R11;Île-de-France;R11;Île-de-France;;14 rue Bonaparte;;;75006;Paris;France;;;;;;;;;;;;;
JpuNC;École nationale supérieure maritime;;ENSM;Grand établissement;;public;Normandie>Seine-Maritime>Le Havre;49.48841;0.12238;"0922706S;0760166T";"0350092K;0130234J";Q3578264;01/10/2010;Décret n° 2010-1129 du 28 septembre 2010 portant création de l'Ecole nationale supérieure maritime;https://www.legifrance.gouv.fr/jorf/id/JORFTEXT000022862578/;76351;Le Havre;UU76701;Le Havre;D076;Seine-Maritime;A70;Normandie;R28;Normandie;R23;Haute-Normandie;;10 quai Frissard;;;76600;Le Havre;France;;;;;;;;;;;;;
mFZJs;ESIEE Paris;;;École;;privé;Île-de-France>Créteil>Seine-Saint-Denis>Paris>Noisy-le-Grand;48.83999;2.58392;0932019P;;Q3046118;01/03/1968;;;93051;Noisy-le-Grand;UU00851;Paris;D093;Seine-Saint-Denis;A24;Créteil;R11;Île-de-France;R11;Île-de-France;Cité Descartes;2 boulevard Blaise Pascal;;BP 99;93162;Noisy-le-Grand CEDEX;France;;;;;;;;;;;;;
3Um0y;Institut catholique de Lyon;UCLY;;École;;privé;Auvergne-Rhône-Alpes>Lyon>Rhône>Lyon>Lyon 2e;45.74658;4.82637;0690195M;;Q8618;1875;;;69382;Lyon 2e;UU00760;Lyon;D069;Rhône;A10;Lyon;R84;Auvergne-Rhône-Alpes;R82;Rhône-Alpes;;10 place des Archives;;;69002;Lyon;France;;;;;;;;;;;;;
wp55m;IAE Paris - Sorbonne Business School;IAE de Paris;IAE Paris;École;;public;Île-de-France>Paris>Paris 5e;48.83839;2.348565;0753364Z;;Q3151899;01/01/1956;;;75105;Paris 5e;UU00851;Paris;D075;Paris;A01;Paris;R11;Île-de-France;R11;Île-de-France;;21 Rue Broca;;;75005;Paris;France;1099;1109;892;1097;1224;1554;1516;1811;1767.0;1746.0;1709.0;1937.0;2001.0
hfCvd;Sciences Po Lyon;IEP de Lyon;IEP Lyon;Autre établissement;;public;Auvergne-Rhône-Alpes>Lyon>Rhône>Lyon>Lyon 7e;45.7471;4.8354;0690173N;;Q2253344;06/05/1948;;;69387;Lyon 7e;UU00760;Lyon;D069;Rhône;A10;Lyon;R84;Auvergne-Rhône-Alpes;R82;Rhône-Alpes;;14 avenue Berthelot;;;69007;Lyon;France;1615;1590;1515;1491;1504;1540;1531;1577;1662.0;1714.0;1694.0;1780.0;1726.0
XqK4j;Institut Sup'Biotech de Paris;Sup'Biotech;ISBP;École;;privé;Île-de-France>Créteil>Val-de-Marne>Paris>Villejuif;48.798078;2.35715;0942193Y;;Q1822570;2003;;;94076;Villejuif;UU00851;Paris;D094;Val-de-Marne;A24;Créteil;R11;Île-de-France;R11;Île-de-France;;66 rue Guy Môquet;;;94800;Villejuif;France;;;;;;;;;;;;;
97b8l;Institut supérieur du commerce de Paris;ISC Paris Business School;;École;;privé;Île-de-France>Paris>Paris 17e;48.892604;2.301231;0750252S;;Q1665124;1963;;;75117;Paris 17e;UU00851;Paris;D075;Paris;A01;Paris;R11;Île-de-France;R11;Île-de-France;;22 boulevard du Fort de Vaux;;;75848;Paris CEDEX 17;France;;;;;;;;;;;;;
s3t8T;Université Côte d'Azur;;UCA;Grand établissement;Université pluridisciplinaire avec santé;public;Provence-Alpes-Côte d'Azur>Nice>Alpes-Maritimes>Nice;43.71693;7.26664;0062205P;"0062126D;0060931E";Q80186910;27/07/2019;Décret n° 2019-785 du 25 juillet 2019 portant création d'Université Côte d'Azur et approbation de ses statuts;https://www.legifrance.gouv.fr/jorf/id/JORFTEXT000038821787/;6088;Nice;UU06701;Nice;D006;Alpes-Maritimes;A23;Nice;R93;Provence-Alpes-Côte d'Azur;R93;Provence-Alpes-Côte d'Azur;;28 avenue Valrose;;BP 2135;6103;Nice CEDEX 2;France;;;;;;;;;;29954.0;30561.0;30832.0;29817.0
p25Q3;Université de Caen Normandie;UNICAEN;UNICAEN;Université;Université pluridisciplinaire avec santé;public;Normandie>Calvados>Caen;49.18884;-0.36382;0141408E;;Q568554;01/01/1971;Décret n° 70-1174 du 17 décembre 1970 portant érection en établissements publics à caractère scientifique et culturel d'universités et centres universitaires;https://www.legifrance.gouv.fr/jorf/id/JORFTEXT000000511402/;14118;Caen;UU14701;Caen;D014;Calvados;A70;Normandie;R28;Normandie;R25;Basse-Normandie;;Esplanade de la Paix;;CS 14032;14032;Caen CEDEX 5;France;23915;23434;23776;24209;25543;27173;28044;27802;28139.0;28707.0;29869.0;29809.0;29469.0
Y7ch7;Université Grenoble Alpes;;UGA;Grand établissement;Université pluridisciplinaire avec santé;public;Auvergne-Rhône-Alpes>Grenoble>Isère>Grenoble>Saint-Martin-d'Hères;45.19159;5.76726;0383546Y;"0383493R;0383412C";Q945876;04/11/2019;Décret n° 2019-1123 du 31 octobre 2019 portant création de l'Université Grenoble Alpes et approbation de ses statuts;https://www.legifrance.gouv.fr/jorf/id/JORFTEXT000039306168/;38421;Saint-Martin-d'Hères;UU38701;Grenoble;D038;Isère;A08;Grenoble;R84;Auvergne-Rhône-Alpes;R82;Rhône-Alpes;;621 avenue Centrale;;;38400;Saint-Martin-d'Hères;France;;;;;;;;;;54560.0;54443.0;55034.0;52369.0
CUBKB;Université Lumière - Lyon 2;Lyon II;;Université;Université tertiaire - lettres et sciences Humaines;public;Auvergne-Rhône-Alpes>Lyon>Rhône>Lyon>Lyon 7e;45.75061375319093;4.837181568145753;0691775E;;Q4041;28/07/1973;Décret no 73-738 du 26 juillet 1973 portant création des universités Lyon-II et Lyon-III;https://www.legifrance.gouv.fr/jorf/id/JORFTEXT000000500622/;69387;Lyon 7e;UU00760;Lyon;D069;Rhône;A10;Lyon;R84;Auvergne-Rhône-Alpes;R82;Rhône-Alpes;;18 quai Claude Bernard;;;69365;Lyon Cedex 07;France;26457;25964;26919;26779;27347;27358;27176;26462;27502.0;26998.0;27092.0;26900.0;25268.0
pVJpw;Université de Mayotte;;;Université;Université pluridisciplinaire hors santé;public;Mayotte>Dembeni;-12.84547;45.18741;9760358K;;Q2946102;15/10/2011;;;97607;Dembeni;UU9F306;Dembeni;D976;Mayotte;A43;Mayotte;R06;Mayotte;R06;Mayotte;;Route nationale 3;;BP 53;97660;Dembeni;France;;;607;719;801;1048;1048;1027;1036.0;1123.0;1256.0;1335.0;1359.0
NAzKJ;École de management de Normandie;EM Normandie;EMN;École;;privé;Normandie>Seine-Maritime>Le Havre;49.48939;0.12522;0760168V;;Q3577891;1871;;;76351;Le Havre;UU76701;Le Havre;D076;Seine-Maritime;A70;Normandie;R28;Normandie;R23;Haute-Normandie;;20 quai Frissard;;;76600;Le Havre;France;;;;;;;;;;;;;
CYH3t;École nationale supérieure d'architecture de Clermont-Ferrand;ENSACF;;École;;public;Auvergne-Rhône-Alpes>Clermont-Ferrand>Puy-de-Dôme>Clermont-Ferrand;45.80157;3.10341;0631287G;;Q3578176;;;;63113;Clermont-Ferrand;UU63701;Clermont-Ferrand;D063;Puy-de-Dôme;A06;Clermont-Ferrand;R84;Auvergne-Rhône-Alpes;R83;Auvergne;;85 rue du Docteur Bousquet;;;63100;Clermont-Ferrand;France;;;;;;;;;;;;;
WaB2p;École nationale supérieure d'architecture de Normandie;Ensa de Normandie;ENSAN;École;;public;Normandie>Seine-Maritime>Rouen>Darnétal;49.43767;1.1373;0760164R;;Q3578182;;;;76212;Darnétal;UU00755;Rouen;D076;Seine-Maritime;A70;Normandie;R28;Normandie;R23;Haute-Normandie;;27 rue LUCIEN FROMAGE;;BP 04;76161;DARNETAL CEDEX;France;;;;;;;;;;;;;
G8QBG;Sciences Po Aix;IEP d'Aix-en-Provence;IEP Aix;Autre établissement;;public;Provence-Alpes-Côte d'Azur>Aix-Marseille>Bouches-du-Rhône>Marseille-Aix-en-Provence>Aix-en-Provence;43.53146;5.44663;0130221V;;Q1139065;31/03/1956;Décret du 27 mars 1956 Création, composition de l'Institut d'études politiques de l'Université d'Aix-Marseille;https://www.legifrance.gouv.fr/jorf/id/JORFTEXT000000492723/;13001;Aix-en-Provence;UU00759;Marseille-Aix-en-Provence;D013;Bouches-du-Rhône;A02;Aix-Marseille;R93;Provence-Alpes-Côte d'Azur;R93;Provence-Alpes-Côte d'Azur;;25 rue Gaston de Saporta;;;13625;Aix-en-Provence CEDEX 1;France;1838;1727;1678;1807;1841;1634;1587;1599;1514.0;1616.0;1581.0;1682.0;1696.0
DOunC;Sciences Po Bordeaux;IEP de Bordeaux;IEP Bordeaux;Autre établissement;;public;Nouvelle-Aquitaine>Bordeaux>Gironde>Bordeaux>Pessac;44.79886;-0.61409;0330192E;;Q1252062;06/05/1948;;;33318;Pessac;UU33701;Bordeaux;D033;Gironde;A04;Bordeaux;R75;Nouvelle-Aquitaine;R72;Aquitaine;Domaine Universitaire;11 allée Ausone;;;33607;Pessac CEDEX;France;1765;1810;1735;1903;1839;1832;1874;1969;2060.0;2218.0;2217.0;2275.0;2297.0
15kV5;Institut national du sport, de l'expertise et de la performance;;INSEP;Grand établissement;;public;Île-de-France>Paris>Paris 12e;48.833495221568754;2.454103231430054;0752559Z;;Q3152447;1975;;;75112;Paris 12e;UU00851;Paris;D075;Paris;A01;Paris;R11;Île-de-France;R11;Île-de-France;;11 avenue du Tremblay;;;75012;Paris;France;;;;;;;;;;;;;
kYR50;Institut polytechnique de Paris;IP Paris;;École;;public;Île-de-France>Versailles>Essonne>Paris>Palaiseau;48.71317;2.21022;0912403T;;Q48759778;03/06/2019;Décret n° 2019-549 du 31 mai 2019 portant création de l'établissement public expérimental Institut polytechnique de Paris et approbation de ses statuts;https://www.legifrance.gouv.fr/jorf/id/JORFTEXT000038535183/;91477;Palaiseau;UU00851;Paris;D091;Essonne;A25;Versailles;R11;Île-de-France;R11;Île-de-France;;Route de Saclay;;;91128;Palaiseau CEDEX;France;;;;;;;;;;;;;
1v4lV;Pôle supérieur d'enseignement artistique Paris - Boulogne-Billancourt;PSPBB;;École;;public;Île-de-France>Paris>Paris 8e;48.878516;2.320699;0755448P;;Q30263695;;;;75108;Paris 8e;UU00851;Paris;D075;Paris;A01;Paris;R11;Île-de-France;R11;Île-de-France;;14 Rue de Madrid;;;75008;Paris;France;;;;;;;;;;;;;
gdal8;TBS Education;;;École;;privé;Occitanie>Toulouse>Haute-Garonne>Toulouse;43.610775;1.429964;0310156B;;Q3117393;1902;;;31555;Toulouse;UU00758;Toulouse;D031;Haute-Garonne;A16;Toulouse;R76;Occitanie;R73;Midi-Pyrénées;;1 Place Alphonse Jourdain;;CS 66810;31068;TOULOUSE CEDEX 7;France;;;;;;;;;;;;;
hlX1r;Université de Poitiers;Université Poitiers;;Université;Université pluridisciplinaire avec santé;public;Nouvelle-Aquitaine>Poitiers>Vienne>Poitiers;46.58596;0.34601;0860856N;;Q661056;1431;Décret n° 70-1174 du 17 décembre 1970 portant érection en établissements publics à caractère scientifique et culturel d'universités et centres universitaires;https://www.legifrance.gouv.fr/jorf/id/JORFTEXT000000511402/;86194;Poitiers;UU86601;Poitiers;D086;Vienne;A13;Poitiers;R75;Nouvelle-Aquitaine;R54;Poitou-Charentes;;15 rue de l’Hôtel Dieu;;TSA 71117;86073;Poitiers CEDEX 9;France;23149;22804;22128;23370;24193;25470;26087;26880;26336.0;26846.0;28026.0;28161.0;27193.0
C701f;Université de Toulon;Université Toulon;;Université;Université pluridisciplinaire hors santé;public;Provence-Alpes-Côte d'Azur>Nice>Var>Toulon>La Garde;43.1369;6.01684;0830766G;;Q1816857;01/10/1979;Décret n° 79-150 du 22 février 1979 portant transformation en université du centre universitaire de Toulon;https://www.legifrance.gouv.fr/jorf/id/JORFTEXT000000336838;83062;La Garde;UU00757;Toulon;D083;Var;A23;Nice;R93;Provence-Alpes-Côte d'Azur;R93;Provence-Alpes-Côte d'Azur;;Avenue de l'Université;;CS 60584;83041;TOULON CEDEX 9;France;9103;9041;8591;8501;8545;8766;8987;9202;9531.0;10280.0;10749.0;10652.0;10010.0
6Jl2q;École spéciale d'architecture;;ÉSA;École;;privé;Île-de-France>Paris>Paris 14e;48.837534;2.330967;0753533H;;Q1140013;1865;;;75114;Paris 14e;UU00851;Paris;D075;Paris;A01;Paris;R11;Île-de-France;R11;Île-de-France;;254 boulevard Raspail;;;75014;Paris;France;;;;;;;;;;;;;
91D9w;Université de Rennes;UNIVRENNES;;Université;Université scientifique et/ou médicale;public;Bretagne>Rennes>Ille-et-Vilaine>Rennes;48.114339;-1.636424;0353074B;0350936C;Q1987282;28/11/2022;Décret n° 2022-1474 du 24 novembre 2022 portant création de l'Université de Rennes et approbation de ses statuts;https://www.legifrance.gouv.fr/jorf/id/JORFTEXT000046619040/;35238;Rennes;UU35701;Rennes;D035;Ille-et-Vilaine;A14;Rennes;R53;Bretagne;R53;Bretagne;;263 Avenue Général Leclerc;;CS 46510;35700;Rennes;France;;;;;;;;;;;;;31759.0
xJdyB;Aix-Marseille Université;amU;amU;Université;Université pluridisciplinaire avec santé;public;Provence-Alpes-Côte d'Azur>Aix-Marseille>Bouches-du-Rhône>Marseille-Aix-en-Provence>Marseille 7e;43.2935;5.35781;0134009M;"0133908C;0131842G;0131843H;0132364Z";Q2302586;01/01/2012;Décret n° 2011-1010 du 24 août 2011 portant création de l'université d'Aix-Marseille;https://www.legifrance.gouv.fr/jorf/id/JORFTEXT000024502554/;13207;Marseille 7e;UU00759;Marseille-Aix-en-Provence;D013;Bouches-du-Rhône;A02;Aix-Marseille;R93;Provence-Alpes-Côte d'Azur;R93;Provence-Alpes-Côte d'Azur;;58 boulevard Charles Livon;;;13284;Marseille CEDEX 07;France;;60667;58679;58728;60984;62175;62629;63095;64403.0;65595.0;67478.0;66934.0;63950.0
bgFFu;École du Louvre;EDL;;École;;public;Île-de-France>Paris>Paris 1er;48.86091;2.33094;0753489K;;Q273534;1882;;;75101;Paris 1er;UU00851;Paris;D075;Paris;A01;Paris;R11;Île-de-France;R11;Île-de-France;Palais du Louvre - Porte Jaujard;Place du Carrousel;;;75038;Paris CEDEX 01;France;;;;;;;;;;;;;
5Ic1n;École nationale supérieure d'architecture de Paris-Malaquais;ENSAPM;;École;;public;Île-de-France>Paris>Paris 6e;48.85669993265381;2.3335433006286626;0751871B;;Q3578184;2001-01;;;75106;Paris 6e;UU00851;Paris;D075;Paris;A01;Paris;R11;Île-de-France;R11;Île-de-France;;14 rue Bonaparte;;;75006;Paris;France;;;;;;;;;;;;;
1H1nG;École nationale supérieure d'architecture de Toulouse;ENSA Toulouse;;École;;public;Occitanie>Toulouse>Haute-Garonne>Toulouse;43.579717;1.397345;0310150V;;Q3578191;;;;31555;Toulouse;UU00758;Toulouse;D031;Haute-Garonne;A16;Toulouse;R76;Occitanie;R73;Midi-Pyrénées;;83  RUE ARISTIDE MAILLOL;;BP 10629;31106;TOULOUSE CEDEX 1;France;;;;;;;;;;;;;
Rnid8;École nationale supérieure des arts décoratifs;ÉnsAD-Paris;;École;;public;Île-de-France>Paris>Paris 5e;48.84278;2.34466;0753470P;;Q1135990;;;;75105;Paris 5e;UU00851;Paris;D075;Paris;A01;Paris;R11;Île-de-France;R11;Île-de-France;;31 RUE D ULM;;;75240;PARIS CEDEX 05;France;;;;;;;;;;;;;
UKEsZ;Facultés Libres de Philosophie et de Psychologie;IPC;IPC;École;;privé;Île-de-France>Paris>Paris 14e;48.838;2.33569;0752139T;;Q3146792;01/01/1969;;;75114;Paris 14e;UU00851;Paris;D075;Paris;A01;Paris;R11;Île-de-France;R11;Île-de-France;;70 avenue Denfert-Rochereau;;;75014;Paris;France;;;;;;;;;;;;;
ab5z5;Institut national des sciences appliquées de Strasbourg;INSA de Strasbourg;INSA Strasbourg;École;;public;Grand Est>Strasbourg>Bas-Rhin>Strasbourg;48.582266;7.764893;0670190T;0670190T;Q521036;05/03/2003;;;67482;Strasbourg;UU67701;Strasbourg;D067;Bas-Rhin;A15;Strasbourg;R44;Grand Est;R42;Alsace;;24 boulevard de la Victoire;;;67084;Strasbourg CEDEX;France;1615;1670;1663;1702;1786;1930;1954;2015;1977.0;1997.0;2018.0;2059.0;2007.0
hy4EW;Université de Guyane;Université Guyane;;Université;Université pluridisciplinaire avec santé;public;Guyane>Cayenne;4.93174;-52.30102;9730429D;9710585J;Q16682067;01/01/2015;Décret n° 2014-851 du 30 juillet 2014 portant création et organisation provisoire de l'université de la Guyane;https://www.legifrance.gouv.fr/jorf/id/JORFTEXT000029310823/;97302;Cayenne;UU9C601;Cayenne;D973;Guyane;A33;Guyane;R03;Guyane;R03;Guyane;;2091 route Baduel;Campus de Troubiran;BP 20792;97337;Cayenne CEDEX;France;;;;;2524;2838;3302;3297;3601.0;3802.0;3960.0;3890.0;3399.0
klrvr;Nîmes université;;;Université;Université pluridisciplinaire hors santé;public;Occitanie>Montpellier>Gard>Nîmes;43.84259819152813;4.357001781463624;0301911P;0301687W;;18/07/2024;Décret n° 2024-842 du 16 juillet 2024 portant création de Nîmes Université et approbation de ses statuts;https://www.legifrance.gouv.fr/jorf/id/JORFTEXT000050002289;30189;Nîmes;UU30601;Nîmes;D030;Gard;A11;Montpellier;R76;Occitanie;R91;Languedoc-Roussillon;Site Vauban;Rue du Docteur Georges Salan;;;30000;Nîmes;France;;;;;;;;;;;;;
5gqzw;Université Jean Monnet;;UJM;Université;Université pluridisciplinaire avec santé;public;Auvergne-Rhône-Alpes>Lyon>Loire>Saint-Étienne;45.424706;4.392766;0422388T;0421095M;;06/12/2024;Décret n° 2024-1155 du 4 décembre 2024 portant création de l'Université Jean Monnet et approbation de ses statuts;https://www.legifrance.gouv.fr/jorf/id/JORFTEXT000050732767;42218;Saint-Étienne;UU00753;Saint-Étienne;D042;Loire;A10;Lyon;R84;Auvergne-Rhône-Alpes;R82;Rhône-Alpes;;10 Rue Tréfilerie;;;42100;Saint-Étienne;France;;;;;;;;;;;;;
evv7S;Université de Montpellier;;UM;Université;Université pluridisciplinaire avec santé;public;Occitanie>Montpellier>Hérault>Montpellier;43.61494;3.87347;0342490X;0342321N;;21/09/2021;Décret n° 2021-1207 du 20 septembre 2021 portant création de l'Université de Montpellier et approbation de ses statuts;https://www.legifrance.gouv.fr/jorf/id/JORFTEXT000044069463/;34172;Montpellier;UU34701;Montpellier;D034;Hérault;A11;Montpellier;R76;Occitanie;R91;Languedoc-Roussillon;;163 rue Auguste Broussonnet;;;34090;Montpellier;France;;;;;;;;;;;;46045.0;45225.0
vH695;Centre des hautes études de la construction;;CHEC;École;;privé;Île-de-France>Créteil>Val-de-Marne>Paris>Arcueil;48.800733327820986;2.327309846878052;0942283W;;Q97293012;01/09/1957;;;94003;Arcueil;UU00851;Paris;D094;Val-de-Marne;A24;Créteil;R11;Île-de-France;R11;Île-de-France;;1 rue Paul Bert;;;94110;ARCUEIL;France;;;;;;;;;;;;;
2CPf2;ECAM Rennes Louis de Broglie;ECAM Rennes;;École;;privé;Bretagne>Rennes>Ille-et-Vilaine>Rennes>Bruz;48.04692;-1.74357;0352337A;;Q3045829;1991;;;35047;Bruz;UU35701;Rennes;D035;Ille-et-Vilaine;A14;Rennes;R53;Bretagne;R53;Bretagne;;2 contour Antoine de Saint Éxupéry;Campus de Ker Lann;CS29128;35170;Bruz;France;;;;;;;;;;;;;
CdULA;École supérieure de chimie physique électronique de Lyon;CPE Lyon;;École;;privé;Auvergne-Rhône-Alpes>Lyon>Rhône>Lyon>Villeurbanne;45.78415;4.868928;0693623N;;Q10178;1994;;;69266;Villeurbanne;UU00760;Lyon;D069;Rhône;A10;Lyon;R84;Auvergne-Rhône-Alpes;R82;Rhône-Alpes;Bâtiment Hubert Curien;43 boulevard du 11 Novembre 191;;BP 82077;69616;Villeurbanne CEDEX;France;;;;;;;;;;;;;
MuSey;École supérieure d'électronique de l'Ouest;ESEO;ESEO;École;;privé;Pays de la Loire>Nantes>Maine-et-Loire>Angers;47.493396;-0.550804;0490075R;;Q3578422;01/01/1956;;;49007;Angers;UU49701;Angers;D049;Maine-et-Loire;A17;Nantes;R52;Pays de la Loire;R52;Pays de la Loire;;10 boulevard Jeanneteau;;CS 90717;49107;Angers CEDEX 2;France;;;;;;;;;;;;;
Dk1Th;Institut national des langues et civilisations orientales;INALCO;INALCO;Grand établissement;;public;Île-de-France>Paris>Paris 13e;48.82725533443922;2.376024127006531;0753488J;;Q1430113;1669;;;75113;Paris 13e;UU00851;Paris;D075;Paris;A01;Paris;R11;Île-de-France;R11;Île-de-France;;65 rue des Grands Moulins;;;75214;Paris CEDEX 13;France;6311;6673;6841;6589;7083;7262;6986;5840;5503.0;5591.0;6144.0;5810.0;5548.0
0Mvk5;Collège de France;;;Grand établissement;;public;Île-de-France>Paris>Paris 5e;48.84879;2.34534;0753480A;;Q202660;1530;;;75105;Paris 5e;UU00851;Paris;D075;Paris;A01;Paris;R11;Île-de-France;R11;Île-de-France;;11 place Marcelin Berthelot;;;75231;Paris CEDEX 05;France;;;;;;;;;;;;;
dxA6r;Institut européen d'administration des affaires;;INSEAD;École;;privé;Île-de-France>Créteil>Seine-et-Marne>Fontainebleau;48.4054;2.68529;0771077C;;Q1136829;1957;;;77186;Fontainebleau;UU77405;Fontainebleau;D077;Seine-et-Marne;A24;Créteil;R11;Île-de-France;R11;Île-de-France;;Boulevard de Constance;;;77305;Fontainebleau;France;;;;;;;;;;;;;
a2a9U;Institut national supérieur de formation et de recherche pour l'éducation inclusive;INSEI;;École;;public;Île-de-France>Versailles>Hauts-de-Seine>Paris>Suresnes;48.86853;2.21315;0922605G;;Q3152454;01/01/2006;Décret n° 2005-1754 du 30 décembre 2005 relatif à l'Institut national supérieur de formation et de recherche pour l'éducation des jeunes handicapés et les enseignements adaptés;https://www.legifrance.gouv.fr/jorf/id/JORFTEXT000000811241/;92073;Suresnes;UU00851;Paris;D092;Hauts-de-Seine;A25;Versailles;R11;Île-de-France;R11;Île-de-France;;58/60 avenue des Landes;;;92150;Suresnes;France;;;;;;;;245;288.0;256.0;265.0;305.0;296.0
BmNtV;Institut polytechnique UniLaSalle;UniLaSalle;;École;;privé;Hauts-de-France>Amiens>Oise>Beauvais;49.45971;2.06792;0600071B;"0951804V;0600071B";Q3152468;01/09/2006;;;60057;Beauvais;UU60501;Beauvais;D060;Oise;A20;Amiens;R32;Hauts-de-France;R22;Picardie;;19 rue Pierre Waguet;;BP 30313;60026;Beauvais CEDEX;France;;;;;;;;;;;;;
VAP7f;Institut supérieur d'électronique de Paris;;ISEP;École;;privé;Île-de-France>Paris>Paris 6e;48.84531;2.32804;0753559L;;Q3152556;1955;;;75106;Paris 6e;UU00851;Paris;D075;Paris;A01;Paris;R11;Île-de-France;R11;Île-de-France;;28 rue Notre-Dame-des-Champs;;;75006;Paris;France;;;;;;;;;;;;;
etBz7;Université Claude Bernard - Lyon 1;Lyon I;;Université;Université scientifique et/ou médicale;public;Auvergne-Rhône-Alpes>Lyon>Rhône>Lyon>Villeurbanne;45.77962;4.86518;0691774D;;Q4032;01/01/1971;Décret du 23 décembre 1970 portant érection d'universités et instituts nationaux polytechniques en établissements publics à caractère scientifique et culturel;https://www.legifrance.gouv.fr/jorf/id/JORFTEXT000000850542/;69266;Villeurbanne;UU00760;Lyon;D069;Rhône;A10;Lyon;R84;Auvergne-Rhône-Alpes;R82;Rhône-Alpes;;43 boulevard du 11 Novembre 1918;;;69622;VilleurbanneCEDEX;France;32215;32783;33853;35231;38173;39423;40305;40971;41212.0;41893.0;40561.0;40570.0;39542.0
K4lR3;Université Clermont Auvergne;;UCA;Université;Université pluridisciplinaire avec santé;public;Auvergne-Rhône-Alpes>Clermont-Ferrand>Puy-de-Dôme>Clermont-Ferrand;45.77056;3.08791;0632084Y;0632035V;Q1319786;09/12/2020;Décret n° 2020-1527 du 7 décembre 2020 portant création de l'Université Clermont Auvergne et approbation de ses statuts;https://www.legifrance.gouv.fr/jorf/id/JORFTEXT000042620217/;63113;Clermont-Ferrand;UU63701;Clermont-Ferrand;D063;Puy-de-Dôme;A06;Clermont-Ferrand;R84;Auvergne-Rhône-Alpes;R83;Auvergne;;49 boulevard François Mitterrand;;CS 60032;63001;Clermont-Ferrand CEDEX 1;France;;;;;;;;;;;34324.0;34381.0;32741.0
ZCW24;Conservatoire national supérieur de musique et de danse de Paris;CNSMDP;;École;;public;Île-de-France>Paris>Paris 19e;48.88882;2.39076;0753495S;;Q463055;;;;75119;Paris 19e;UU00851;Paris;D075;Paris;A01;Paris;R11;Île-de-France;R11;Île-de-France;;209 avenue Jean Jaurès;;;75019;PARIS;France;;;;;;;;;;;;;
13fXQ;École nationale supérieure Louis Lumière;ENS Louis Lumière;ENSLL;École;;public;Île-de-France>Créteil>Seine-Saint-Denis>Paris>Saint-Denis;48.922189;2.335657;0932066R;;Q273466;1926;;;93066;Saint-Denis;UU00851;Paris;D093;Seine-Saint-Denis;A24;Créteil;R11;Île-de-France;R11;Île-de-France;La Cité du Cinéma;20 rue Ampère;;;93200;Saint-Denis;France;;;;;;;;146;148.0;147.0;144.0;147.0;144.0
wkykl;École nationale vétérinaire de Toulouse;;ENVT;École;;public;Occitanie>Toulouse>Haute-Garonne>Toulouse;43.6004;1.3819;0310153Y;;Q3578275;1825;;;31555;Toulouse;UU00758;Toulouse;D031;Haute-Garonne;A16;Toulouse;R76;Occitanie;R73;Midi-Pyrénées;;23 chemin des Capelles;;BP 87614;31076;Toulouse CEDEX 3;France;;;;;;;;;;;;;
tJRnj;École spéciale des travaux publics, du bâtiment et de l'industrie;ESTP;;École;;privé;Île-de-France>Créteil>Val-de-Marne>Paris>Cachan;48.79422078629043;2.328532934188843;"0753607N;0942340H";;Q273483;1891;;;94016;Cachan;UU00851;Paris;D094;Val-de-Marne;A24;Créteil;R11;Île-de-France;R11;Île-de-France;;28 avenue du Président Wilson;;;94230;Cachan;France;;;;;;;;;;;;;
4C5vX;École supérieure d'informatique électronique automatique;;ESIEA;École;;privé;Île-de-France>Paris>Paris 5e;48.83788;2.352616;0753560M;;Q3578402;1958;;;75105;Paris 5e;UU00851;Paris;D075;Paris;A01;Paris;R11;Île-de-France;R11;Île-de-France;;9 rue Vesale;;;75005;Paris;France;;;;;;;;;;;;;
J36yt;Institut catholique de Paris;;ICP;École;;privé;Île-de-France>Paris>Paris 6e;48.8483;2.32936;0753541S;;Q1470431;1875;;;75106;Paris 6e;UU00851;Paris;D075;Paris;A01;Paris;R11;Île-de-France;R11;Île-de-France;;21 rue d’Assas;;;75270;Paris CEDEX 06;France;;;;;;;;;;;;;
5cuYU;Vet Agro Sup;Vet Agro Sup;;Grand établissement;;public;Auvergne-Rhône-Alpes>Lyon>Rhône>Lyon>Marcy-l'Étoile;45.793314788437215;4.711171388626099;0690193K;0631786Z;Q3151920;01/01/2010;Décret n° 2009-1641 du 24 décembre 2009 portant création de l'Institut d'enseignement supérieur et de recherche en alimentation, santé animale, sciences agronomiques et de l'environnement (Vet Agro Sup);https://www.legifrance.gouv.fr/jorf/id/JORFTEXT000021528233/;69127;Marcy-l'Étoile;UU00760;Lyon;D069;Rhône;A10;Lyon;R84;Auvergne-Rhône-Alpes;R82;Rhône-Alpes;;1 avenue Bourgelat;;;69280;Marcy-l'Étoile;France;;;;;;;;;;;;;
EM3xY;Institut régional du travail social de Champagne-Ardennes;IRTS Champagne-Ardenne;;École;;privé;Grand Est>Reims>Marne>Reims;49.231082;4.002474;0511556P;;;;;;51454;Reims;UU51701;Reims;D051;Marne;A19;Reims;R44;Grand Est;R21;Champagne-Ardenne;;8 rue Joliot Curie;;;51100;REIMS;France;;;;;;;;;;;;;
bxPQe;Sorbonne Université;Sorbonne U;;Université;Université pluridisciplinaire avec santé;public;Île-de-France>Paris>Paris 6e;48.85114773764701;2.3403829336166386;0755890V;"0751720M;0751722P";Q41497113;01/01/2018;Décret n° 2017-596 du 21 avril 2017 portant création de l'université Sorbonne Université;https://www.legifrance.gouv.fr/jorf/id/JORFTEXT000034455357/;75106;Paris 6e;UU00851;Paris;D075;Paris;A01;Paris;R11;Île-de-France;R11;Île-de-France;;21 rue de l’École de médecine;;;75006;PARIS;France;;;;;;;;50741;49708.0;48236.0;47856.0;48971.0;49020.0
nkbwh;Université de Limoges;;UNILIM;Université;Université pluridisciplinaire avec santé;public;Nouvelle-Aquitaine>Limoges>Haute-Vienne>Limoges;45.82604;1.25853;0870669E;;Q2661290;01/01/1971;Décret n° 70-1174 du 17 décembre 1970 portant érection en établissements publics à caractère scientifique et culturel d'universités et centres universitaires;https://www.legifrance.gouv.fr/jorf/id/JORFTEXT000000511402/;87085;Limoges;UU87601;Limoges;D087;Haute-Vienne;A22;Limoges;R75;Nouvelle-Aquitaine;R74;Limousin;;33 rue François Mitterrand;;BP 23204;87032;Limoges CEDEX 01;France;13728;13642;14016;14576;14970;15182;15753;16126;16980.0;17455.0;17929.0;17701.0;16096.0
8tVLr;Université de technologie de Troyes;;UTT;École;;public;Grand Est>Reims>Aube>Troyes;48.26834;4.06794;0101060Y;;Q1037208;16/09/1994;;;10387;Troyes;UU10601;Troyes;D010;Aube;A19;Reims;R44;Grand Est;R21;Champagne-Ardenne;;12 rue Marie Curie;;CS 42060;10004;Troyes CEDEX;France;2418;2432;2508;2550;2613;2738;2890;3089;3172.0;3066.0;3256.0;3235.0;3196.0
8k883;Université Sorbonne Nouvelle - Paris 3;Paris III;;Université;Université tertiaire - lettres et sciences Humaines;public;Île-de-France>Paris>Paris 12e;48.844881806752355;2.39701509475708;0751719L;;Q571293;01/01/1971;Décret n° 70-1174 du 17 décembre 1970 portant érection en établissements publics à caractère scientifique et culturel d'universités et centres universitaires;https://www.legifrance.gouv.fr/jorf/id/JORFTEXT000000511402/;75112;Paris 12e;UU00851;Paris;D075;Paris;A01;Paris;R11;Île-de-France;R11;Île-de-France;;8 avenue de Saint-Mandé;;;75012;Paris;France;17178;17516;17188;16882;16624;16196;15937;15469;16123.0;15978.0;15638.0;15404.0;14995.0
3xQrL;École nationale supérieure d'arts de Paris-Cergy;ENSAPC;;École;;public;Île-de-France>Versailles>Val-d'Oise>Paris>Cergy;49.03643;2.07795;0951310H;;Q3578196;;;;95127;Cergy;UU00851;Paris;D095;Val-d'Oise;A25;Versailles;R11;Île-de-France;R11;Île-de-France;;2  RUE DES ITALIENS;;;95000;CERGY;France;;;;;;;;;;;;;
59da6;École nationale supérieure des sciences de l'information et des bibliothèques;;ENSSIB;Grand établissement;;public;Auvergne-Rhône-Alpes>Lyon>Rhône>Lyon>Villeurbanne;45.7803;4.86229;0692459Y;;Q2791269;13/01/1992;Décret no 92-25 du 9 janvier 1992 relatif à l'organisation de l'Ecole nationale supérieure des sciences de l'information et des bibliothèques;https://www.legifrance.gouv.fr/jorf/id/JORFTEXT000000356825/;69266;Villeurbanne;UU00760;Lyon;D069;Rhône;A10;Lyon;R84;Auvergne-Rhône-Alpes;R82;Rhône-Alpes;;17/21 boulevard du 11 novembre 1918;;;69623;Villeurbanne CEDEX;France;90;241;243;233;225;251;240;228;219.0;210.0;219.0;234.0;247.0
LllIv;École nationale vétérinaire d'Alfort;;ENVA;École;;public;Île-de-France>Créteil>Val-de-Marne>Paris>Maisons-Alfort;48.81474;2.42152;0940608A;;Q273600;1765;;;94046;Maisons-Alfort;UU00851;Paris;D094;Val-de-Marne;A24;Créteil;R11;Île-de-France;R11;Île-de-France;;7 avenue du Général de Gaulle;;;94700;Maisons-Alfort CEDEX;France;;;;;;;;;;;;;
x2D1F;École supérieure d’agriculture;ESA;ESA;École;;privé;Pays de la Loire>Nantes>Maine-et-Loire>Angers;47.458784;-0.543657;0490072M;;Q3578375;1898;;;49007;Angers;UU49701;Angers;D049;Maine-et-Loire;A17;Nantes;R52;Pays de la Loire;R52;Pays de la Loire;;55 RUE RABELAIS;;BP 30748;49007;ANGERS CEDEX 01;France;;;;;;;;;;;;;
38wo2;École supérieure d'art et de design de Reims;ESAD Reims;;École;;public;Grand Est>Reims>Marne>Reims;49.252304;4.029733;0510084P;;Q3578396;;;;51454;Reims;UU51701;Reims;D051;Marne;A19;Reims;R44;Grand Est;R21;Champagne-Ardenne;;12 rue LIBERGIER;;;51100;REIMS;France;;;;;;;;;;;;;
k94mT;Institut national des sciences et techniques nucléaires;INSTN;;École;;public;Île-de-France>Versailles>Essonne>Paris>Gif-sur-Yvette;48.723847;2.153444;0910685A;;Q3152438;1956;;;91272;Gif-sur-Yvette;UU00851;Paris;D091;Essonne;A25;Versailles;R11;Île-de-France;R11;Île-de-France;;Centre CEA de Saclay;Point courrier n°35;;91191;GIF SUR YVETTE CEDEX;France;;;;;;;;;;;;;
eUjTI;Institut supérieur de l'électronique et du numérique de Brest;Yncréa Ouest;;École;;privé;Bretagne>Rennes>Finistère>Brest;48.407023;-4.495576;0292125C;;Q51648617;01/09/1994;;;29019;Brest;UU29701;Brest;D029;Finistère;A14;Rennes;R53;Bretagne;R53;Bretagne;;20 rue Cuirassé Bretagne;;CS 42807;29200;Brest;France;;;;;;;;;;;;;
42F7G;IPAG Business School;;;École;;privé;Île-de-France>Paris>Paris 6e;48.85497;2.331248;"0754273M;0752792C";;Q24928475;1965;;;75106;Paris 6e;UU00851;Paris;D075;Paris;A01;Paris;R11;Île-de-France;R11;Île-de-France;;184 BOULEVARD ST GERMAIN;;;75006;PARIS;France;;;;;;;;;;;;;
VaJ52;Muséum national d'histoire naturelle;;MNHN;Grand établissement;;public;Île-de-France>Paris>Paris 5e;48.84202;2.35616;0753494R;;Q838691;1793;;;75105;Paris 5e;UU00851;Paris;D075;Paris;A01;Paris;R11;Île-de-France;R11;Île-de-France;;57 rue Cuvier;;;75005;PARIS;France;371;385;324;329;361;376;394;424;427.0;420.0;385.0;422.0;420.0
vxHYt;Avignon Université;;AU;Université;Université pluridisciplinaire hors santé;public;Provence-Alpes-Côte d'Azur>Aix-Marseille>Vaucluse>Avignon;43.95005;4.81789;0840685N;;Q2033119;26/07/1984;Décret n° 84-723 du 17 juillet 1984 fixant la classification d'établissements publics à caractère scientifique, culturel et professionnel;https://www.legifrance.gouv.fr/jorf/id/JORFTEXT000000503527;84007;Avignon;UU00754;Avignon;D084;Vaucluse;A02;Aix-Marseille;R93;Provence-Alpes-Côte d'Azur;R93;Provence-Alpes-Côte d'Azur;;74 rue Louis Pasteur;;;84029;Avignon CEDEX 1;France;6601;6581;6755;6478;6519;6716;6789;6677;6954.0;6946.0;7086.0;6787.0;6346.0
zHvr4;École nationale supérieure des arts et techniques du théâtre;;ENSATT;École;;public;Auvergne-Rhône-Alpes>Lyon>Rhône>Lyon>Lyon 5e;45.75331;4.81132;0693735K;;Q3578242;15/04/1941;;;69385;Lyon 5e;UU00760;Lyon;D069;Rhône;A10;Lyon;R84;Auvergne-Rhône-Alpes;R82;Rhône-Alpes;;4 rue Sœur Bouvier;;;69322;Lyon CEDEX 05;France;;;;;;;;170;187.0;183.0;182.0;216.0;203.0
BWbvP;Université d'Artois;;;Université;Université pluridisciplinaire hors santé;public;Hauts-de-France>Lille>Pas-de-Calais>Arras;50.2847;2.79112;0623957P;;Q475504;15/11/1991;Décret no 91-1160 du 7 novembre 1991 portant création et organisation provisoire de l'université d'Artois;https://www.legifrance.gouv.fr/jorf/id/JORFTEXT000000355616/;62041;Arras;UU62502;Arras;D062;Pas-de-Calais;A09;Lille;R32;Hauts-de-France;R31;Nord-Pas-de-Calais;;9 rue du Temple;;BP 10665;62030;Arras CEDEX;France;11404;10817;11370;10956;10134;10593;10844;11325;11536.0;12157.0;12695.0;12710.0;11888.0
5tVy4;Université Bretagne Sud;;UBS;Université;Université pluridisciplinaire hors santé;public;Bretagne>Rennes>Morbihan>Lorient;47.74618;-3.39072;0561718N;;Q1125958;07/02/1995;Décret no 95-130 du 7 février 1995 portant création et organisation provisoire de l'université de Bretagne-Sud;https://www.legifrance.gouv.fr/jorf/id/JORFTEXT000000715266/;56121;Lorient;UU56601;Lorient;D056;Morbihan;A14;Rennes;R53;Bretagne;R53;Bretagne;;27 rue Armand Guillemot;;BP 92116;56321;Lorient CEDEX;France;8377;8333;8384;8564;8127;8547;8108;8135;8912.0;9311.0;9920.0;9923.0;9549.0
yH19Y;Université du Littoral Côte d’Opale;;ULCO;Université;Université pluridisciplinaire hors santé;public;Hauts-de-France>Lille>Nord>Dunkerque;51.039;2.37183;0595964M;;Q3551755;15/11/1991;Décret no 91-1161 du 7 novembre 1991 portant création et organisation provisoire de l'université du Littoral;https://www.legifrance.gouv.fr/jorf/id/JORFTEXT000000538668/;59183;Dunkerque;UU59602;Dunkerque;D059;Nord;A09;Lille;R32;Hauts-de-France;R31;Nord-Pas-de-Calais;;1 place de l'Yser;;BP 72033;59375;Dunkerque CEDEX;France;10847;10145;10292;10071;9669;8256;8399;8508;9096.0;9668.0;10254.0;10247.0;9413.0
vb71K;Université Paris-Est Créteil;;UPEC;Université;Université pluridisciplinaire avec santé;public;Île-de-France>Créteil>Val-de-Marne>Paris>Créteil;48.78852;2.4437;0941111X;;Q980688;01/01/1971;Décret n° 70-1174 du 17 décembre 1970 portant érection en établissements publics à caractère scientifique et culturel d'universités et centres universitaires;https://www.legifrance.gouv.fr/jorf/id/JORFTEXT000000511402/;94028;Créteil;UU00851;Paris;D094;Val-de-Marne;A24;Créteil;R11;Île-de-France;R11;Île-de-France;;61 avenue du Général de Gaulle;;;94010;Créteil CEDEX;France;26381;26396;26931;27918;28960;29915;30681;31798;33061.0;33970.0;35651.0;37061.0;36957.0
WadM1;Y SCHOOLS;Y SCHOOLS;;École;;privé;Grand Est>Reims>Aube>Troyes;48.28417;4.07982;0101059X;;Q3117947;1992;;;10387;Troyes;UU10601;Troyes;D010;Aube;A19;Reims;R44;Grand Est;R21;Champagne-Ardenne;;217 avenue Pierre Brossolette;;;10000;Troyes;France;;;;;;;;;;;;;
11v7N;Brest Business School;Brest BS;;École;;privé;Bretagne>Rennes>Finistère>Brest;48.4059433199;-4.5215645694;0290127F;;Q3578429;1962;;;29019;Brest;UU29701;Brest;D029;Finistère;A14;Rennes;R53;Bretagne;R53;Bretagne;;2 avenue DE PROVENCE;;CS23812;29238;BREST CEDEX 2;France;;;;;;;;;;;;;
td273;École française d'Athènes;;EFA;Autre établissement;;public;Étranger>Athènes;37.982222;23.737778;1260001S;;Q273548;1846;;;;Athènes;;Athènes;D999;Étranger;A00;Étranger;R99;Étranger;R99;Étranger;;6 rue Didotou;;;10680;Athènes;Grèce;;;;;;;;;;;;;
QHKrf;École spéciale militaire de Saint-Cyr;ESM ST CYR;;École;;public;Bretagne>Rennes>Morbihan>Guer;47.94619;-2.152742;0560068V;;Q1132066;1802;;;56075;Guer;UU56207;Guer;D056;Morbihan;A14;Rennes;R53;Bretagne;R53;Bretagne;;;COETQUIDAN;;56380;GUER;France;;;;;;;;;;;;;
HjtSP;École supérieure de fonderie et de forge;ESFF;;École;;privé;Île-de-France>Versailles>Hauts-de-Seine>Paris>Sèvres;48.822532;2.224391;0920672F;;Q3578445;01/01/1923;;;92072;Sèvres;UU00851;Paris;D092;Hauts-de-Seine;A25;Versailles;R11;Île-de-France;R11;Île-de-France;;44 AVENUE DE LA DIVISION LECLERC;;;92310;SEVRES;France;;;;;;;;;;;;;
cZd69;Groupe Institut catholique d'arts et métiers;Groupe ICAM;;École;;privé;Île-de-France>Paris>Paris 9e;48.87961;2.328815;;;Q3151859;1898;;;75109;Paris 9e;UU00851;Paris;D075;Paris;A01;Paris;R11;Île-de-France;R11;Île-de-France;;3 Rue de Liège;;;75009;Paris;France;;;;;;;;;;;;;
n2vXC;Institut supérieur d’agriculture Rhône-Alpes;Isara-Lyon;;École;;privé;Auvergne-Rhône-Alpes>Lyon>Rhône>Lyon>Lyon 7e;45.727895;4.836377;0692353H;;Q3152527;1968;;;69387;Lyon 7e;UU00760;Lyon;D069;Rhône;A10;Lyon;R84;Auvergne-Rhône-Alpes;R82;Rhône-Alpes;;23 RUE JEAN BALDASSINI;;;69364;LYON CEDEX 07;France;;;;;;;;;;;;;
z8973;ISMANS;;ISMANS CESI;École;;privé;Pays de la Loire>Nantes>Sarthe>Le Mans;48.019687;0.157589;0721484X;;Q3152596;04/03/1987;;;72181;Le Mans;UU72701;Le Mans;D072;Sarthe;A17;Nantes;R52;Pays de la Loire;R52;Pays de la Loire;;44 avenue Frédéric Auguste Bartholdi;;;72000;Le Mans;France;;;;;;;;;;;;;
2bx2x;Institut supérieur international du parfum, de la cosmétique et de l'aromatique alimentaire;ISIPCA;;École;;privé;Île-de-France>Versailles>Yvelines>Paris>Versailles;48.817017;2.141886;"0781110H;0783690M";;Q3152629;;;;78646;Versailles;UU00851;Paris;D078;Yvelines;A25;Versailles;R11;Île-de-France;R11;Île-de-France;;36 RUE DU PARC DE CLAGNY;;;78000;VERSAILLES;France;;;;;;;;;;;;;
hh87F;KEDGE Business School;KEDGE BS;;École;;privé;Nouvelle-Aquitaine>Bordeaux>Gironde>Bordeaux>Talence;44.79622;-0.600218;0333326L;;Q16647785;2013;;;33522;Talence;UU33701;Bordeaux;D033;Gironde;A04;Bordeaux;R75;Nouvelle-Aquitaine;R72;Aquitaine;;680 COURS DE LA LIBERATION;;;33405;TALENCE CEDEX;France;;;;;;;;;;;;;
zepT6;Université de la Polynésie Française;;UPF;Université;Université pluridisciplinaire avec santé;public;Collectivités d'outre-mer>Polynésie Française>Punaauia;-17.57685;-149.60684;9840349G;9840303G;Q1695245;02/06/1999;Décret no 99-445 du 31 mai 1999 portant création de l'université de la Polynésie française et de l'université de la Nouvelle-Calédonie;https://www.legifrance.gouv.fr/jorf/id/JORFTEXT000000394929/;98738;Punaauia;TOM98738;Punaauia;D987;Polynésie Française;A41;Polynésie Française;R00;Collectivités d'outre-mer;R00;Collectivités d'outre-mer;Campus d'Outumaoro;;Punaauia;BP 6570;98702;Faa'a;France;3133;2979;3127;3415;3486;3633;3365;3051;2821.0;2847.0;2924.0;3029.0;2581.0
9hqpm;Université de Toulouse;;UT;Université;Université scientifique et/ou médicale;public;Occitanie>Toulouse>Haute-Garonne>Toulouse;43.561566;1.463029;0313218E;0311384L;;06/12/2024;Décret n° 2024-1156 du 4 décembre 2024 portant création de l'Université de Toulouse et approbation de ses statuts;https://www.legifrance.gouv.fr/jorf/id/JORFTEXT000050732896;31555;Toulouse;UU00758;Toulouse;D031;Haute-Garonne;A16;Toulouse;R76;Occitanie;R73;Midi-Pyrénées;;118 route de Narbonne;;;31400;Toulouse;France;;;;;;;;;;;;;
g6rwB;Université Paris Nanterre;Paris Nanterre;;Université;Université tertiaire - lettres et sciences Humaines;public;Île-de-France>Versailles>Hauts-de-Seine>Paris>Nanterre;48.90329925253182;2.213155031204224;0921204J;;Q1394262;01/01/1971;Décret n°70-1290 du 23 décembre 1970 PORTANT ELECTION DES UNIVERSITES DE PARIS VI & PARIS X EN ETABLISSEMENTS PUBLICS A CARACTERE SCIENTIFIQUE ET CULTUREL;https://www.legifrance.gouv.fr/jorf/id/JORFTEXT000000850240/;92050;Nanterre;UU00851;Paris;D092;Hauts-de-Seine;A25;Versailles;R11;Île-de-France;R11;Île-de-France;;200 avenue de la République;;;92001;Nanterre CEDEX;France;28832;30814;30694;31404;30174;29948;29249;28443;29792.0;30656.0;31523.0;32093.0;30613.0
ti37C;Université Rennes 2;Rennes II;;Université;Université tertiaire - lettres et sciences Humaines;public;Bretagne>Rennes>Ille-et-Vilaine>Rennes;48.12064;-1.70333;0350937D;;Q459026;01/01/1971;Décret n° 70-1174 du 17 décembre 1970 portant érection en établissements publics à caractère scientifique et culturel d'universités et centres universitaires;https://www.legifrance.gouv.fr/jorf/id/JORFTEXT000000511402/;35238;Rennes;UU35701;Rennes;D035;Ille-et-Vilaine;A14;Rennes;R53;Bretagne;R53;Bretagne;;Place du recteur Henri Le Moal;;CS 24307;35043;Rennes CEDEX;France;17649;19223;20632;20632;21225;22021;21640;20268;20338.0;20435.0;21753.0;23057.0;20936.0
zCa4j;Université Savoie Mont Blanc;;USMB;Université;Université pluridisciplinaire hors santé;public;Auvergne-Rhône-Alpes>Grenoble>Savoie>Chambéry;45.56676;5.9175;0730858L;;Q2496158;01/10/1979;Décret n° 79-562 du 27 juin 1979 portant transformation en université du centre universitaire de Chambéry;https://www.legifrance.gouv.fr/jorf/id/JORFTEXT000000338381/;73065;Chambéry;UU73601;Chambéry;D073;Savoie;A08;Grenoble;R84;Auvergne-Rhône-Alpes;R82;Rhône-Alpes;;27 rue Marcoz;;;73000;Chambéry;France;11637;11885;12476;12483;12482;12842;12936;13196;13276.0;13733.0;14154.0;14037.0;13505.0
6a498;Casa de Velázquez de Madrid;;CVZ;Autre établissement;;public;Étranger>Madrid;40.44138;-3.73045;1340004B;;Q2470271;1929;;;;Madrid;;Madrid;D999;Étranger;A00;Étranger;R99;Étranger;R99;Étranger;Ciudad universitaria;C/ de Paul Guinard, 3;;;28040;Madrid;Espagne;;;;;;;;;;;;;
2rXuC;École des hautes études commerciales de Paris;HEC Paris;;École;;privé;Île-de-France>Versailles>Yvelines>Paris>Jouy-en-Josas;48.757325;2.169014;0783054W;;Q273535;1881;;;78322;Jouy-en-Josas;UU00851;Paris;D078;Yvelines;A25;Versailles;R11;Île-de-France;R11;Île-de-France;;1 Rue de la Libération;;;78350;Jouy-en-Josas;France;;;;;;;;;;;;;
Hq9dm;École nationale supérieure de création industrielle - Les Ateliers;Ensci-Les Ateliers;;École;;public;Île-de-France>Paris>Paris 8e;48.8584;2.36934;0754585B;;Q870925;08/11/1982;;;75108;Paris 8e;UU00851;Paris;D075;Paris;A01;Paris;R11;Île-de-France;R11;Île-de-France;;48  RUE SAINT SABIN;;;75011;PARIS;France;;;;;;;;;;;;;
NmN4R;École supérieure de chimie organique et minérale;;ESCOM;École;;privé;Hauts-de-France>Amiens>Oise>Compiègne;49.40196;2.80246;"0602099F;0951803U";;Q3578426;21/06/1969;;;60159;Compiègne;UU60502;Compiègne;D060;Oise;A20;Amiens;R32;Hauts-de-France;R22;Picardie;;1 allée du Réseau Jean-Marie Buckmaster;;;60200;Compiègne;France;;;;;;;;;;;;;
0347i;École supérieure d'ingénieurs des travaux de la construction de Metz;ESITC de Metz;ESITC Metz;École;;privé;Grand Est>Nancy-Metz>Moselle>Metz;49.10042;6.21616;0573389Z;;Q3578417;1992;;;57463;Metz;UU57701;Metz;D057;Moselle;A12;Nancy-Metz;R44;Grand Est;R41;Lorraine;;6 rue Marconi;;;57070;Metz;France;;;;;;;;;;;;;
OZUAy;École supérieure d'ingénieurs en génie électrique;ESIGELEC;;École;;privé;Normandie>Seine-Maritime>Rouen>Saint-Étienne-du-Rouvray;49.38364;1.07715;0762378X;;Q17672767;1901;;;76575;Saint-Étienne-du-Rouvray;UU00755;Rouen;D076;Seine-Maritime;A70;Normandie;R28;Normandie;R23;Haute-Normandie;;Avenue Galilée;Technopôle du Madrillet;BP 10024;76801;Saint-Étienne-du-Rouvray;France;;;;;;;;;;;;;
ylVkq;École supérieure d'ingénieurs Léonard-de-Vinci;ESILV;;École;;privé;Île-de-France>Versailles>Hauts-de-Seine>Paris>Courbevoie;48.896387417065654;2.236399054527283;0922563L;;Q3578408;1994;;;92026;Courbevoie;UU00851;Paris;D092;Hauts-de-Seine;A25;Versailles;R11;Île-de-France;R11;Île-de-France;Pôle universitaire Léonard-de-Vinci;12 avenue Léonard de Vinci;;;92916;Paris La Défense CEDEX;France;;;;;;;;;;;;;
YzNA8;ESIEE-IT;;;École;;privé;Île-de-France>Versailles>Val-d'Oise>Paris>Pontoise;49.043554;2.081926;0952291Z;;;01/09/2020;;;95500;Pontoise;UU00851;Paris;D095;Val-d'Oise;A25;Versailles;R11;Île-de-France;R11;Île-de-France;;8, Rue Pierre de Coubertin;;;95300;Pontoise;France;;;;;;;;;;;;;
9xlel;Le Mans Université;;LMU;Université;Université pluridisciplinaire hors santé;public;Pays de la Loire>Nantes>Sarthe>Le Mans;48.0148;0.159251;0720916E;;Q834825;01/10/1977;Décret n° 77-458 du 20 avril 1977 relatif à la transformation du centre universitaire du Mans en université de plein exercice;https://www.legifrance.gouv.fr/jorf/id/JORFTEXT000000883893/;72181;Le Mans;UU72701;Le Mans;D072;Sarthe;A17;Nantes;R52;Pays de la Loire;R52;Pays de la Loire;;Avenue Olivier Messiaen;;;72085;Le Mans CEDEX 9;France;9763;9771;9937;9799;9177;9144;8985;9430;9709.0;10029.0;10524.0;10262.0;9823.0
NLCOF;Université de Corse Pasquale Paoli;Université Corse;;Université;Université pluridisciplinaire avec santé;public;Corse>Haute-Corse>Corte;42.30048;9.15328;7200664J;;Q335841;01/12/1975;Décret n° 75-1027 du 6 novembre 1975 portant création de l'université de Corse;https://www.legifrance.gouv.fr/jorf/id/JORFTEXT000000500642/;2B096;Corte;UU2B202;Corte;D02B;Haute-Corse;A27;Corse;R94;Corse;R94;Corse;Bâtiment Jean-Toussaint Desanti;Avenue du 9 septembre;;;20250;Corte;France;3801;3719;3757;3959;3993;3982;3986;4139;4181.0;4274.0;4392.0;4475.0;4130.0
6G2TU;Université Paris 1 - Panthéon Sorbonne;Paris 1;;Université;Université tertiaire - droit et économie;public;Île-de-France>Paris>Paris 5e;48.8468;2.34488;0751717J;;Q999763;01/01/1971;Décret du 23 décembre 1970 portant érection d'universités et instituts nationaux polytechniques en établissements publics à caractère scientifique et culturel;https://www.legifrance.gouv.fr/jorf/id/JORFTEXT000000850542/;75105;Paris 5e;UU00851;Paris;D075;Paris;A01;Paris;R11;Île-de-France;R11;Île-de-France;;12 place du Panthéon;;;75231;Paris CEDEX 05;France;35593;36504;36128;36934;36130;35758;35688;36768;38283.0;38515.0;39858.0;40413.0;39285.0
jkHTu;Institut national du service public;;INSP;École;;public;Grand Est>Strasbourg>Bas-Rhin>Strasbourg;48.581336;7.737568;"0753463G;0672678X";0672678X;Q109039648;03/12/2021;Décret n° 2021-1556 du 1er décembre 2021 relatif à l'organisation et au fonctionnement de l'Institut national du service public;https://www.legifrance.gouv.fr/jorf/id/JORFTEXT000044394909/;67482;Strasbourg;UU67701;Strasbourg;D067;Bas-Rhin;A15;Strasbourg;R44;Grand Est;R42;Alsace;;1 Rue Sainte-Marguerite;;;67000;Strasbourg;France;;;;;;;;;;;;;
lfdJH;École nationale supérieure des sciences agronomiques de Bordeaux Aquitaine;Bordeaux Sciences Agro;BSA;École;;public;Nouvelle-Aquitaine>Bordeaux>Gironde>Bordeaux>Gradignan;44.792718;-0.608576;0330203S;;Q3578255;05/07/1963;Décret n° 63-637 du 28 juin 1963 créant l'École nationale d'ingénieurs des travaux agricoles de Bordeaux;https://www.legifrance.gouv.fr/jorf/id/JORFTEXT000000869934/;33192;Gradignan;UU33701;Bordeaux;D033;Gironde;A04;Bordeaux;R75;Nouvelle-Aquitaine;R72;Aquitaine;;1 cours du Général de Gaulle;;CS 40201;33175;Gradignan CEDEX;France;;;;;;;;;;;;;
I4SPK;École nationale supérieure d'ingénieurs de Caen;ENSI Caen;ENSICAEN;École;;public;Normandie>Calvados>Caen;49.21467;-0.36735;0141720U;;Q3578208;1976;;;14118;Caen;UU14701;Caen;D014;Calvados;A70;Normandie;R28;Normandie;R25;Basse-Normandie;;6 boulevard Maréchal Juin;;CS 45053;14050;Caen CEDEX 4;France;685;680;701;707;727;716;716;705;751.0;785.0;796.0;845.0;818.0
WsNr7;École supérieure des technologies industrielles avancées;ESTIA;;École;;privé;Nouvelle-Aquitaine>Bordeaux>Pyrénées-Atlantiques>Bayonne>Bidart;43.44613;-1.55395;0641923T;;Q3578510;1996;;;64125;Bidart;UU00751;Bayonne;D064;Pyrénées-Atlantiques;A04;Bordeaux;R75;Nouvelle-Aquitaine;R72;Aquitaine;;90 allée Fauste d’Elhuyar;;;64210;Bidart;France;;;;;;;;;;;;;
78FKM;École supérieure du bois;ESB Nantes;ESB;École;;privé;Pays de la Loire>Nantes>Loire-Atlantique>Nantes;47.284;-1.514663;0442278M;;Q3578509;01/01/1934;;;44109;Nantes;UU44701;Nantes;D044;Loire-Atlantique;A17;Nantes;R52;Pays de la Loire;R52;Pays de la Loire;;9 RUE CHRISTIAN PAUC;CHANTRERIE;BP10605;44306;NANTES CEDEX 3;France;;;;;;;;;;;;;
6mwS3;Institut supérieur d'agriculture de Lille;ISA Lille;;École;;privé;Hauts-de-France>Lille>Nord>Lille;50.63380812638809;3.046694397926331;0590343C;;Q3117452;01/01/1963;;;59350;Lille;UU59702;Lille;D059;Nord;A09;Lille;R32;Hauts-de-France;R31;Nord-Pas-de-Calais;;48 Boulevard Vauban;;;59046;Lille CEDEX;France;;;;;;;;;;;;;
8CElz;Rennes School of Business;Rennes SB;;École;;privé;Bretagne>Rennes>Ille-et-Vilaine>Rennes;48.127773;-1.69295;0352305R;;Q3578440;1990;;;35238;Rennes;UU35701;Rennes;D035;Ille-et-Vilaine;A14;Rennes;R53;Bretagne;R53;Bretagne;;2 rue Robert d’Arbrissel;;CS 76522;35065;RENNES CEDEX;France;;;;;;;;;;;;;
Mz90U;Université Bordeaux Montaigne;;UBM;Université;Université tertiaire - lettres et sciences Humaines;public;Nouvelle-Aquitaine>Bordeaux>Gironde>Bordeaux>Pessac;44.8015;-0.615058;0331766R;;Q13342;01/01/1971;Décret du 23 décembre 1970 portant érection d'universités et instituts nationaux polytechniques en établissements publics à caractère scientifique et culturel;https://www.legifrance.gouv.fr/jorf/id/JORFTEXT000000850542/;33318;Pessac;UU33701;Bordeaux;D033;Gironde;A04;Bordeaux;R75;Nouvelle-Aquitaine;R72;Aquitaine;;Domaine Universitaire;;;33607;Pessac Cedex;France;15208;14512;14203;14216;14563;14632;14135;15093;15422.0;15301.0;15603.0;15659.0;14139.0
90I54;Université de Bordeaux;UBx;;Université;Université pluridisciplinaire avec santé;public;Nouvelle-Aquitaine>Bordeaux>Gironde>Bordeaux>Talence;44.809966;-0.596578;0333298F;"0332929E;0331764N;0331765P";Q13344;01/01/2014;Décret n° 2013-805 du 3 septembre 2013 portant création de l'Université de Bordeaux;https://www.legifrance.gouv.fr/jorf/id/JORFTEXT000027927174/;33522;Talence;UU33701;Bordeaux;D033;Gironde;A04;Bordeaux;R75;Nouvelle-Aquitaine;R72;Aquitaine;;351 cours de la Libération;;;33405;Talence CEDEX;France;;;;46145;46553;48265;48892;49129;49286.0;48598.0;46799.0;46833.0;45065.0
3Z5e6;Université Gustave Eiffel;;UGE;Université;Université pluridisciplinaire hors santé;public;Île-de-France>Créteil>Seine-et-Marne>Paris>Champs-sur-Marne;48.83915;2.58747;0772894C;"0772502B;0932056E;0772765M";Q65153823;01/01/2020;Décret n° 2019-1360 du 13 décembre 2019 portant création de l'Université Gustave Eiffel et approbation de ses statuts;https://www.legifrance.gouv.fr/jorf/id/JORFTEXT000039508816/;77083;Champs-sur-Marne;UU00851;Paris;D077;Seine-et-Marne;A24;Créteil;R11;Île-de-France;R11;Île-de-France;;5 boulevard Descartes;;;77420;Champs-sur-Marne;France;;;;;;;;;;15367.0;15693.0;15888.0;15057.0
73Oaz;Junia;;;École;;privé;Hauts-de-France>Lille>Nord>Lille;50.63385;3.04665;0597165T;;;2013;;;59350;Lille;UU59702;Lille;D059;Nord;A09;Lille;R32;Hauts-de-France;R31;Nord-Pas-de-Calais;;2 rue Norbert Ségard;;;59046;Lille;France;;;;;;;;;;;;;
xMWFa;CESI;;CESI;École;;privé;Île-de-France>Versailles>Hauts-de-Seine>Paris>Puteaux;48.88976;2.24012;"0922455U;0755372G";;Q30255548;09/11/1958;;;92062;Puteaux;UU00851;Paris;D092;Hauts-de-Seine;A25;Versailles;R11;Île-de-France;R11;Île-de-France;Tour PB5;1 avenue du Général de Gaulle;;;92074;Paris La Défense;France;;;;;;;;;;;;;
csUhz;École nationale supérieure d’architecture de Versailles;ENSA-V;;École;;public;Île-de-France>Versailles>Yvelines>Paris>Versailles;48.8008;2.12753;0780412Z;;Q1050988;1969;;;78646;Versailles;UU00851;Paris;D078;Yvelines;A25;Versailles;R11;Île-de-France;R11;Île-de-France;;5 avenue DE SCEAUX;PETITES ECURIES DU ROI;BP 674;78006;VERSAILLES CEDEX;France;;;;;;;;;;;;;
ZOGe5;École nationale supérieure de paysage;ENSP;;École;;public;Île-de-France>Versailles>Yvelines>Paris>Versailles;48.799059;2.123464;0782019W;;Q3578260;1976;;;78646;Versailles;UU00851;Paris;D078;Yvelines;A25;Versailles;R11;Île-de-France;R11;Île-de-France;;10 rue du Maréchal-Joffre;;;78000;VERSAILLES;France;;;;;;;;;;;;;
xX50H;École nationale supérieure du pétrole et des moteurs;IFP school;;École;;public;Île-de-France>Versailles>Hauts-de-Seine>Paris>Rueil-Malmaison;48.877622;2.172404;0920815L;;Q2732297;13/10/1954;;;92063;Rueil-Malmaison;UU00851;Paris;D092;Hauts-de-Seine;A25;Versailles;R11;Île-de-France;R11;Île-de-France;;228 AVENUE NAPOLEON BONAPARTE;;;92852;RUEIL MALMAISON CEDEX;France;;;;;;;;;;;;;
HqgFy;École supérieure d'arts et médias de Caen - Cherbourg;ÉSAM Caen/Cherbourg;;École;;public;Normandie>Calvados>Caen;49.180866;-0.346302;0141432F;;Q3578397;2011;;;14118;Caen;UU14701;Caen;D014;Calvados;A70;Normandie;R28;Normandie;R25;Basse-Normandie;;17  COURS CAFFARELLI;;;14000;CAEN;France;;;;;;;;;;;;;
7Gzub;Université Jean Moulin - Lyon 3;Lyon III;;Université;Université tertiaire - droit et économie;public;Auvergne-Rhône-Alpes>Lyon>Rhône>Lyon>Lyon 8e;45.747027;4.860547;0692437Z;;Q4027;28/07/1973;Décret no 73-738 du 26 juillet 1973 portant création des universités Lyon-II et Lyon-III;https://www.legifrance.gouv.fr/jorf/id/JORFTEXT000000500622/;69388;Lyon 8e;UU00760;Lyon;D069;Rhône;A10;Lyon;R84;Auvergne-Rhône-Alpes;R82;Rhône-Alpes;;1C avenue des Frères Lumière;;CS 78242;69372;Lyon CEDEX 08;France;22590;23610;24652;25340;25334;26452;26972;26969;27336.0;25710.0;25219.0;25559.0;25035.0
YgZl6;Centre de ressources, d'expertise et de performance sportives de Toulouse;CREPS Toulouse;;École;;public;Occitanie>Toulouse>Haute-Garonne>Toulouse;43.56992;1.47394;0312561R;;Q54409652;;;;31555;Toulouse;UU00758;Toulouse;D031;Haute-Garonne;A16;Toulouse;R76;Occitanie;R73;Midi-Pyrénées;CREPS TOULOUSE;1  AVENUE EDOUARD BELIN;;BP 4373;31055;TOULOUSE CEDEX 4;France;;;;;;;;;;;;;
nikMz;École des hautes études commerciales du nord;Edhec;;École;;privé;Hauts-de-France>Lille>Nord>Lille>Roubaix;50.67306;3.16605;0590350K;;Q769040;1906;;;59512;Roubaix;UU59702;Lille;D059;Nord;A09;Lille;R32;Hauts-de-France;R31;Nord-Pas-de-Calais;;24 avenue Gustave Delory;;;59057;Roubaix CEDEX 1;France;;;;;;;;;;;;;
8QDvM;École d'ingénieurs des sciences aérospatiales;ELISA;;École;;privé;Nouvelle-Aquitaine>Bordeaux>Gironde>Bordeaux>Saint-Jean-d'Illac;44.800616;-0.777097;"0333415H;0022134J";;Q65162999;2009;;;33422;Saint-Jean-d'Illac;UU33701;Bordeaux;D033;Gironde;A04;Bordeaux;R75;Nouvelle-Aquitaine;R72;Aquitaine;;Allée des Charbonnières;;;33127;Saint-Jean-d'Illac;France;;;;;;;;;;;;;
JQKHK;École nationale de l'aviation civile;ENAC;ENAC;Grand établissement;;public;Occitanie>Toulouse>Haute-Garonne>Toulouse;43.565904;1.480601;0311256X;;Q174335;28/08/1949;;;31555;Toulouse;UU00758;Toulouse;D031;Haute-Garonne;A16;Toulouse;R76;Occitanie;R73;Midi-Pyrénées;;7 avenue Edouard Belin;;CS 54005;31055;Toulouse CEDEX 4;France;;;;;;;;;;;;;
ZgGP9;École nationale supérieure d'architecture de Strasbourg;ENSAS;ENSAS;École;;public;Grand Est>Strasbourg>Bas-Rhin>Strasbourg;48.58582;7.73711;0670186N;;Q3578190;1922;;;67482;Strasbourg;UU67701;Strasbourg;D067;Bas-Rhin;A15;Strasbourg;R44;Grand Est;R42;Alsace;;6-8 boulevard du Président Wilson;;BP 10037;67068;STRASBOURG CEDEX;France;;;;;;;;;;;;;
fHgMV;École supérieure angevine en informatique et productique;ESAIP;;École;;privé;Pays de la Loire>Nantes>Maine-et-Loire>Angers>Saint-Barthélemy-d'Anjou;47.46355710615347;-0.49745321273803716;0492246A;;Q3578372;1987;;;49267;Saint-Barthélemy-d'Anjou;UU49701;Angers;D049;Maine-et-Loire;A17;Nantes;R52;Pays de la Loire;R52;Pays de la Loire;;18 rue du 8 mai 1945;;BP 80022;49124;Saint-Barthélemy-d'Anjou;France;;;;;;;;;;;;;
67Ocz;Haute école des arts du Rhin;HEAR;HEAR;École;;public;Grand Est>Strasbourg>Bas-Rhin>Strasbourg;48.582371;7.759293;0673048Z;;Q21041502;01/01/2011;;;67482;Strasbourg;UU67701;Strasbourg;D067;Bas-Rhin;A15;Strasbourg;R44;Grand Est;R42;Alsace;;1 rue de l'Académie;;CS10032;67082;STRASBOURG CEDEX;France;;;;;;;;;;;;;
pgd9B;Institut catholique de Lille;;ICL;École;;privé;Hauts-de-France>Lille>Nord>Lille;50.6330901906103;3.0467104911804204;"0594617Y;0590344D";;Q1477551;1973;;;59350;Lille;UU59702;Lille;D059;Nord;A09;Lille;R32;Hauts-de-France;R31;Nord-Pas-de-Calais;;60 boulevard Vauban;;BP 109;59016;Lille CEDEX;France;;;;;;;;;;;;;
8k41p;Institut national des sciences appliquées de Lyon;INSA de Lyon;INSA Lyon;École;;public;Auvergne-Rhône-Alpes>Lyon>Rhône>Lyon>Villeurbanne;45.78262388935692;4.878010153770448;0690192J;;Q1633859;12/11/1957;;;69266;Villeurbanne;UU00760;Lyon;D069;Rhône;A10;Lyon;R84;Auvergne-Rhône-Alpes;R82;Rhône-Alpes;;20 avenue Albert Einstein;;;69621;Villeurbanne Cedex;France;5639;5779;5800;5836;5927;6048;5950;6134;6208.0;6224.0;5958.0;6052.0;6067.0
l4myZ;Institut protestant de théologie;IPT;;École;;privé;Île-de-France>Paris>Paris 14e;48.834229;2.337221;0753605L;;Q3064314;1877;;;75114;Paris 14e;UU00851;Paris;D075;Paris;A01;Paris;R11;Île-de-France;R11;Île-de-France;;83 boulevard Arago;;;75014;Paris;France;;;;;;;;;;;;;
OJZ4a;Université de Haute-Alsace;;UHA;Université;Université pluridisciplinaire hors santé;public;Grand Est>Strasbourg>Haut-Rhin>Mulhouse;47.7323;7.31485;0681166Y;;Q280183;10/10/1975;Décret n°75-912 du 8 octobre 1975 portant création de l'université du Haut-Rhin;https://www.legifrance.gouv.fr/jorf/id/JORFTEXT000000853574/;68224;Mulhouse;UU68701;Mulhouse;D068;Haut-Rhin;A15;Strasbourg;R44;Grand Est;R42;Alsace;;2 rue des Frères Lumière;;;68093;Mulhouse CEDEX;France;7947;7743;7536;7436;7688;7923;8064;9376;10029.0;10237.0;10315.0;10029.0;9745.0
cEt92;Université de La Réunion;;UR;Université;Université pluridisciplinaire avec santé;public;La Réunion>Saint-Denis;-20.9019;55.4843;9740478B;;Q834819;01/10/1982;Décret n° 82-907 du 15 octobre 1982 portant transformation en université du centre universitaire de la Réunion;https://www.legifrance.gouv.fr/jorf/id/JORFTEXT000000515804/;97411;Saint-Denis;UU9D603;Saint-Denis;D974;La Réunion;A28;La Réunion;R04;La Réunion;R04;La Réunion;;15 avenue René Cassin;;CS 92003;97744;Saint-Denis Cedex9;France;11651;11593;12202;12836;13109;14059;14173;14406;15153.0;15924.0;17495.0;17042.0;16932.0
G4572;Université de Rouen Normandie;;UNIROUEN;Université;Université pluridisciplinaire avec santé;public;Normandie>Seine-Maritime>Rouen>Mont-Saint-Aignan;49.4583;1.06895;0761904G;;Q494247;01/01/1971;Décret n° 70-1174 du 17 décembre 1970 portant érection en établissements publics à caractère scientifique et culturel d'universités et centres universitaires;https://www.legifrance.gouv.fr/jorf/id/JORFTEXT000000511402/;76451;Mont-Saint-Aignan;UU00755;Rouen;D076;Seine-Maritime;A70;Normandie;R28;Normandie;R23;Haute-Normandie;;1 rue Thomas Becket;;;76821;Mont-Saint-Aignan CEDEX;France;23861;23994;25066;26042;26707;28017;29007;29474;29811.0;30657.0;32002.0;32390.0;31754.0
gap5Q;Université Toulouse Capitole;UT Capitole;;Université;Université tertiaire - droit et économie;public;Occitanie>Toulouse>Haute-Garonne>Toulouse;43.606087;1.438184;0313124C;0311382J;;10/12/2022;Décret n° 2022-1536 du 8 décembre 2022 portant création de l'Université Toulouse Capitole et approbation de ses statuts;https://www.legifrance.gouv.fr/jorf/id/JORFTEXT000046711400;31555;Toulouse;UU00758;Toulouse;D031;Haute-Garonne;A16;Toulouse;R76;Occitanie;R73;Midi-Pyrénées;;2 Rue du Doyen Gabriel Marty;;;31000;Toulouse cedex 9;France;;;;;;;;;;;;;18964.0
u82xd;Université de technologie Tarbes Occitanie Pyrénées;;UTTOP;École;;public;Occitanie>Toulouse>Hautes-Pyrénées>Tarbes;43.225181;0.05325;0651124U;;Q124412825;27/11/2023;;;65440;Tarbes;UU65501;Tarbes;D065;Hautes-Pyrénées;A16;Toulouse;R76;Occitanie;R73;Midi-Pyrénées;;47 avenue d'Azereix;;BP 1629;65016;Tarbes CEDEX;France;;;;;;;;;;;;;
NxIiH;École spéciale de mécanique et d'électricité;ESME Sudria;ESME;École;;privé;Île-de-France>Créteil>Val-de-Marne>Paris>Ivry-sur-Seine;48.81413;2.392969;"0753574C;0941953M";;Q1572655;1905;;;94041;Ivry-sur-Seine;UU00851;Paris;D094;Val-de-Marne;A24;Créteil;R11;Île-de-France;R11;Île-de-France;;38 RUE MOLIERE;;;94200;IVRY SUR SEINE;France;;;;;;;;;;;;;
xRH6D;Institut catholique de Vendée;ICES;ICES;École;;privé;Pays de la Loire>Nantes>Vendée>La Roche-sur-Yon;46.67251;-1.41955;0851415B;;Q3151861;01/01/1990;;;85191;La Roche-sur-Yon;UU85501;La Roche-sur-Yon;D085;Vendée;A17;Nantes;R52;Pays de la Loire;R52;Pays de la Loire;;17 boulevard des Belges;;BP 691;85017;La Roche-sur-Yon CEDEX;France;;;;;;;;;;;;;
dj88d;Institut national des sciences appliquées de Toulouse;INSA de Toulouse;INSA Toulouse;École;;public;Occitanie>Toulouse>Haute-Garonne>Toulouse;43.56960616644996;1.4677691459655764;0310152X;;Q858979;29/11/1961;;;31555;Toulouse;UU00758;Toulouse;D031;Haute-Garonne;A16;Toulouse;R76;Occitanie;R73;Midi-Pyrénées;;135 avenue de Rangueil;;;31077;Toulouse CEDEX 04;France;2573;2714;2720;2755;2871;2823;2833;2953;3032.0;3023.0;3054.0;3052.0;3077.0
atbEK;La Rochelle Université;Université La Rochelle;;Université;Université pluridisciplinaire hors santé;public;Nouvelle-Aquitaine>Poitiers>Charente-Maritime>La Rochelle;46.14774;-1.15504;0171463Y;;Q1500822;22/01/1993;Décret n° 93-77 du 20 janvier 1993 portant création et organisation provisoire de l'université de La Rochelle;https://www.legifrance.gouv.fr/jorf/id/JORFTEXT000000726433/;17300;La Rochelle;UU17601;La Rochelle;D017;Charente-Maritime;A13;Poitiers;R75;Nouvelle-Aquitaine;R54;Poitou-Charentes;Technoforum;23 avenue Albert Einstein;;BP 33060;17031;La Rochelle;France;7356;7525;7344;7317;7382;7837;8051;8201;8134.0;8281.0;8154.0;8193.0;7702.0
t6Cq5;Université de Lorraine;;UL;Grand établissement;Université pluridisciplinaire avec santé;public;Grand Est>Nancy-Metz>Meurthe-et-Moselle>Nancy;48.69614438320864;6.176607012748719;0542493S;"0541508W;0572081C;0541507V";Q4173330;01/01/2012;Décret n° 2011-1169 du 22 septembre 2011 portant création de l'université de Lorraine;https://www.legifrance.gouv.fr/jorf/id/JORFTEXT000024583895/;54395;Nancy;UU54701;Nancy;D054;Meurthe-et-Moselle;A12;Nancy-Metz;R44;Grand Est;R41;Lorraine;;34 cours Léopold;;;54052;Nancy CEDEX;France;;51551;51354;52192;54624;57109;58779;59405;59976.0;60891.0;63049.0;61099.0;57871.0
cqyN7;Université Sorbonne Paris Nord;;USPN;Université;Université pluridisciplinaire avec santé;public;Île-de-France>Créteil>Seine-Saint-Denis>Paris>Villetaneuse;48.95793;2.34071;0931238R;;Q1780212;01/01/1971;Décret n° 70-1174 du 17 décembre 1970 portant érection en établissements publics à caractère scientifique et culturel d'universités et centres universitaires;https://www.legifrance.gouv.fr/jorf/id/JORFTEXT000000511402/;93079;Villetaneuse;UU00851;Paris;D093;Seine-Saint-Denis;A24;Créteil;R11;Île-de-France;R11;Île-de-France;;99 avenue Jean-Baptiste Clément;;;93430;Villetaneuse;France;21179;21866;20990;20822;20283;20539;20335;20299;21348.0;21592.0;22572.0;22524.0;21942.0
HqAYu;Université Toulouse - Jean Jaurès;;UT2;Université;Université tertiaire - lettres et sciences Humaines;public;Occitanie>Toulouse>Haute-Garonne>Toulouse;43.57954;1.40235;0311383K;;Q1933558;01/01/1971;Décret du 23 décembre 1970 portant érection d'universités et instituts nationaux polytechniques en établissements publics à caractère scientifique et culturel;https://www.legifrance.gouv.fr/jorf/id/JORFTEXT000000850542/;31555;Toulouse;UU00758;Toulouse;D031;Haute-Garonne;A16;Toulouse;R76;Occitanie;R73;Midi-Pyrénées;;5 allées Antonio Machado;;;31058;Toulouse CEDEX 9;France;21528;21879;22564;24684;26424;26904;29078;29895;29419.0;29981.0;31142.0;31030.0;29672.0
U8a0v;Université de Lille;;;Université;Université pluridisciplinaire avec santé;public;Hauts-de-France>Lille>Nord>Lille;50.631794;3.07526;0597239Y;0597065J;;21/09/2021;Décret n° 2021-1206 du 20 septembre 2021 portant création de l'Université de Lille et approbation de ses statuts;https://www.legifrance.gouv.fr/jorf/id/JORFTEXT000044069299/;59350;Lille;UU59702;Lille;D059;Nord;A09;Lille;R32;Hauts-de-France;R31;Nord-Pas-de-Calais;;42 Rue Paul Duez;;;59800;Lille;France;;;;;;;;;;;;77221.0;74634.0
fWJJA;Centrale Lyon;EC Lyon;;École;;public;Auvergne-Rhône-Alpes>Lyon>Rhône>Lyon>Écully;45.78299;4.76927;0690187D;;Q10177;1857;;;69081;Écully;UU00760;Lyon;D069;Rhône;A10;Lyon;R84;Auvergne-Rhône-Alpes;R82;Rhône-Alpes;;36 avenue Guy de Collongue;;;69134;Écully CEDEX;France;1482;1390;1513;1633;1714;1774;1817;1907;1876.0;1842.0;2912.0;2916.0;2920.0
jKV15;École centrale d'électronique;ECE;;École;;privé;Île-de-France>Paris>Paris 15e;48.85152;2.28683;0754431J;;Q3577731;1909;;;75115;Paris 15e;UU00851;Paris;D075;Paris;A01;Paris;R11;Île-de-France;R11;Île-de-France;Immeuble Pollux;37 quai de Grenelle;;;75015;Paris;France;;;;;;;;;;;;;
5YWUA;École supérieure des sciences économiques et commerciales;;Essec;École;;privé;Île-de-France>Versailles>Val-d'Oise>Paris>Cergy;49.03397;2.078427;0951214D;;Q273642;1907;;;95127;Cergy;UU00851;Paris;D095;Val-d'Oise;A25;Versailles;R11;Île-de-France;R11;Île-de-France;;AVENUE BERNARD HIRSCH;;CS 50105;95021;CERGY PONTOISE CEDEX;France;;;;;;;;;;;;;
u79ZJ;Sciences Po;IEP de Paris;IEP Paris;Grand établissement;;public;Île-de-France>Paris>Paris 7e;48.85412;2.32842;0753431X;;Q859363;1945-10;;;75107;Paris 7e;UU00851;Paris;D075;Paris;A01;Paris;R11;Île-de-France;R11;Île-de-France;;27 rue Saint Guillaume;;;75337;Paris CEDEX 07;France;7539;8248;8541;8734;8986;9427;9668;10023;10243.0;10394.0;10571.0;10673.0;10970.0
nhwFO;Neoma Business School;Neoma BS;;École;;privé;Normandie>Seine-Maritime>Rouen>Mont-Saint-Aignan;49.4631;1.063824;0760167U;;Q16665962;10/09/2013;;;76451;Mont-Saint-Aignan;UU00755;Rouen;D076;Seine-Maritime;A70;Normandie;R28;Normandie;R23;Haute-Normandie;;1 rue du Maréchal Juin;;;76130;Mont Saint Aignan;France;;;;;;;;;;;;;
l9qwd;Université Bourgogne Europe;;UBE;Université;Université pluridisciplinaire avec santé;public;Bourgogne-Franche-Comté>Dijon>Côte-d'Or>Dijon;47.31326427033337;5.068940520286561;0212296G;0211237F;;06/12/2024;Décret n° 2024-1157 du 4 décembre 2024 portant création de l'Université Bourgogne Europe et approbation de ses statuts;https://www.legifrance.gouv.fr/jorf/id/JORFTEXT000050733030;21231;Dijon;UU21701;Dijon;D021;Côte-d'Or;A07;Dijon;R27;Bourgogne-Franche-Comté;R26;Bourgogne;Maison de l'université;Esplanade Erasme;;BP 27877;21078;Dijon CEDEX;France;;;;;;;;;;;;;
rwz11;Université de Montpellier Paul-Valéry;;UMPV;Université;Université tertiaire - lettres et sciences Humaines;public;Occitanie>Montpellier>Hérault>Montpellier;43.6324177950831;3.870170116424561;0342569H;0341089Z;;18/07/2024;;;34172;Montpellier;UU34701;Montpellier;D034;Hérault;A11;Montpellier;R76;Occitanie;R91;Languedoc-Roussillon;;Route de Mende;;;34090;Montpellier;France;;;;;;;;;;;;;
G2qA7;Université Paris-Saclay;;;Université;Université scientifique et/ou médicale;public;Île-de-France>Versailles>Essonne>Paris>Gif-sur-Yvette;48.709629;2.170077;0912408Y;"0912330N;0911101C";Q109409389;07/11/2019;Décret n° 2019-1131 du 5 novembre 2019 portant création de l'université Paris-Saclay et approbation de ses statuts;https://www.legifrance.gouv.fr/jorf/id/JORFTEXT000039323233/;91272;Gif-sur-Yvette;UU00851;Paris;D091;Essonne;A25;Versailles;R11;Île-de-France;R11;Île-de-France;Bâtiment Breguet;3 rue Joliot Curie;;;91190;Gif-sur-Yvette;France;;;;;;;;;;42164.0;45231.0;46100.0;46798.0
6Th4v;Institut Mines-Télécom, au périmètre des écoles IMT Atlantique, Lille Douai, Albi, Alès, Mines Saint-Étienne et Institut Mines-Télécom Business school;;IMT;Grand établissement;;public;Île-de-France>Versailles>Essonne>Paris>Palaiseau;48.7132;2.19972;"0912424R;0755661W";;Q7885718;01/03/2012;Décret n° 2012-279 du 28 février 2012 relatif à l'Institut Mines-Télécom;https://www.legifrance.gouv.fr/jorf/id/JORFTEXT000025414042/;91477;Palaiseau;UU00851;Paris;D091;Essonne;A25;Versailles;R11;Île-de-France;R11;Île-de-France;;19 place Marguerite Perey;;;91120;Palaiseau;France;;;;;;;;;;;;;
Onzi5;ECAM-EPMI;ECAM-EPMI;;École;;privé;Île-de-France>Versailles>Val-d'Oise>Paris>Cergy;49.031763;2.074459;0951819L;;Q3577775;1992;;;95127;Cergy;UU00851;Paris;D095;Val-d'Oise;A25;Versailles;R11;Île-de-France;R11;Île-de-France;;13 boulevard de l’Hautil;;;95092;Cergy-Pontoise CEDEX;France;;;;;;;;;;;;;
YPOQX;École nationale du génie de l'eau et de l'environnement de Strasbourg;;ENGEES;École;;public;Grand Est>Strasbourg>Bas-Rhin>Strasbourg;48.580797;7.758744;0670189S;;Q3578160;1952;;;67482;Strasbourg;UU67701;Strasbourg;D067;Bas-Rhin;A15;Strasbourg;R44;Grand Est;R42;Alsace;;1 Cour des Cigarières;;;67000;Strasbourg;France;;;;;;;;;;;;;
XBZhH;École nationale supérieure des métiers de l'image et du son;La Fémis;;École;;public;Île-de-France>Paris>Paris 18e;48.89055;2.34257;0753457A;;Q1138556;01/01/1986;;;75118;Paris 18e;UU00851;Paris;D075;Paris;A01;Paris;R11;Île-de-France;R11;Île-de-France;;6 rue FRANCOEUR;;;75018;PARIS;France;;;;;;;;;;;;;
eHi5c;EPF - École d'ingénieurs;EPF;;École;;privé;Île-de-France>Créteil>Val-de-Marne>Paris>Cachan;48.79218;2.329213;"0942500G;0920674H";;Q3046044;1925;;;94016;Cachan;UU00851;Paris;D094;Val-de-Marne;A24;Créteil;R11;Île-de-France;R11;Île-de-France;;55 avenue du Président Wilson;;;94230;Cachan;France;;;;;;;;;;;;;
QYw7j;Institut national des sciences appliquées Centre Val de Loire;INSA Centre Val de Loire;INSA CVL;École;;public;Centre-Val de Loire>Orléans-Tours>Cher>Bourges;47.0821667774133;2.416074872016907;"0411068N;0180974L";"0410981U;0410979S;0180910S";Q15651478;01/01/2014;Décret n° 2013-521 du 19 juin 2013 portant création de l'Institut national des sciences appliquées Centre Val de Loire;https://www.legifrance.gouv.fr/jorf/id/JORFTEXT000027587535/;18033;Bourges;UU18501;Bourges;D018;Cher;A18;Orléans-Tours;R24;Centre-Val de Loire;R24;Centre-Val de Loire;;88 boulevard Lahitolle;;CS 60013;18022;Bourges cedex;France;;;;1151;1413;1550;1594;1632;1654.0;1672.0;1717.0;1705.0;1759.0
24vIz;Institut national du patrimoine;;Inp;École;;public;Île-de-France>Paris>Paris 2e;48.86661;2.33907;0754446A;;Q3152445;18/05/1990;Décret n° 90-406 du 16 mai 1990 créant et organisant l'École nationale du patrimoine;https://www.legifrance.gouv.fr/jorf/id/JORFTEXT000000343015/;75102;Paris 2e;UU00851;Paris;D075;Paris;A01;Paris;R11;Île-de-France;R11;Île-de-France;;2 rue VIVIENNE;;;75002;PARIS;France;;;;;;;;;;;;;
2Nnrv;Institut supérieur de l'aéronautique et de l'espace;ISAE-SUPAERO;;Grand établissement;;public;Occitanie>Toulouse>Haute-Garonne>Toulouse;43.5656;1.47408;0312760G;"0310146R;0311587G";Q155446;27/09/2007;Décret n° 2007-1384 du 24 septembre 2007 portant création de l'Institut supérieur de l'aéronautique et de l'espace;https://www.legifrance.gouv.fr/jorf/id/JORFTEXT000000469118/;31555;Toulouse;UU00758;Toulouse;D031;Haute-Garonne;A16;Toulouse;R76;Occitanie;R73;Midi-Pyrénées;;10 avenue Édouard Belin;;BP 54032;31055;Toulouse CEDEX 4;France;;;;;;;;;;;;;
4k25D;Université de Strasbourg;;UNISTRA;Université;Université pluridisciplinaire avec santé;public;Grand Est>Strasbourg>Bas-Rhin>Strasbourg;48.57872;7.76465;0673021V;"0671778U;0671712X;0671713Y";Q157575;01/01/2009;Décret n° 2008-787 du 18 août 2008 portant création de l'université de Strasbourg;https://www.legifrance.gouv.fr/jorf/id/JORFTEXT000019341825/;67482;Strasbourg;UU67701;Strasbourg;D067;Bas-Rhin;A15;Strasbourg;R44;Grand Est;R42;Alsace;;4 rue Blaise Pascal;;CS 90032;67081;Strasbourg CEDEX;France;42261;42850;43735;44754;46180;47292;48974;49465;50449.0;51255.0;51464.0;51852.0;50832.0
EW53M;Université Polytechnique Hauts-de-France;;UPHF;Université;Université pluridisciplinaire avec santé;public;Hauts-de-France>Lille>Nord>Valenciennes>Aulnoy-lez-Valenciennes;50.32622;3.51056;0597132G;0593279U;Q1548539;11/09/2019;Décret n° 2019-942 du 9 septembre 2019 portant création de l'Université Polytechnique Hauts-de-France et de l'Institut national des sciences appliquées Hauts-de-France et approbation des statuts de l'établissement expérimental;https://www.legifrance.gouv.fr/jorf/id/JORFTEXT000039070284/;59032;Aulnoy-lez-Valenciennes;UU59701;Valenciennes;D059;Nord;A09;Lille;R32;Hauts-de-France;R31;Nord-Pas-de-Calais;;Le Mont Houy;;;59313;Valenciennes CEDEX 9;France;;;;;;;;;;12510.0;12304.0;13011.0;12026.0
NV3O7;École catholique des arts et métiers;ECAM Lasalle;ECAM;École;;privé;Auvergne-Rhône-Alpes>Lyon>Rhône>Lyon>Lyon 5e;45.76391;4.82518;0690194L;;Q3577727;01/01/1900;;;69385;Lyon 5e;UU00760;Lyon;D069;Rhône;A10;Lyon;R84;Auvergne-Rhône-Alpes;R82;Rhône-Alpes;;40 montée Saint Barthélemy;;;69321;Lyon CEDEX 05;France;;;;;;;;;;;;;
Y0wtS;École de management Léonard De Vinci;EMLV;EMLV;École;;privé;Île-de-France>Versailles>Hauts-de-Seine>Paris>Courbevoie;48.8962;2.2359;0922369A;;Q166446;1995;;;92026;Courbevoie;UU00851;Paris;D092;Hauts-de-Seine;A25;Versailles;R11;Île-de-France;R11;Île-de-France;Pôle Universitaire Léonard de Vinci;2-12 avenue Léonard de Vinci;;;92916;Paris La Défense CEDEX;France;;;;;;;;;;;;;
fZmTP;Burgundy School of Business;;BSB;École;;privé;Bourgogne-Franche-Comté>Dijon>Côte-d'Or>Dijon;47.32806;5.04142;0210099U;;Q3578434;;;;21231;Dijon;UU21701;Dijon;D021;Côte-d'Or;A07;Dijon;R27;Bourgogne-Franche-Comté;R26;Bourgogne;;29 rue Sambin;;BP 50608;21006;Dijon CEDEX;France;;;;;;;;;;;;;
8bexp;ESCP Business School;;ESCP;École;;privé;Île-de-France>Paris>Paris 15e;48.842394;2.317575;0753547Y;;Q29293;1819;;;75115;Paris 15e;UU00851;Paris;D075;Paris;A01;Paris;R11;Île-de-France;R11;Île-de-France;;3 rue Armand Moisant;;;75015;Paris;France;;;;;;;;;;;;;
5eUBS;Institut français d'archéologie orientale du Caire;IFAO;;Autre établissement;;public;Étranger>Le Caire;30.0328599;31.2352879;3010001R;;Q1472454;1880;;;;Le Caire;;Le Caire;D999;Étranger;A00;Étranger;R99;Étranger;R99;Étranger;;37 rue al-Cheikh Ali Youssef;;B.P. 11562 Qasr al-Aïny;11441;Le Caire;Égypte;;;;;;;;;;;;;
e2uv7;Université de Brest;;;Université;Université pluridisciplinaire avec santé;public;Bretagne>Rennes>Finistère>Brest;48.39905661506747;-4.503364562988282;;0290346U;;01/03/2025;Décret n° 2025-177 du 24 février 2025 portant création de l'Université de Brest et approbation de ses statuts;https://www.legifrance.gouv.fr/jorf/id/JORFTEXT000051244713;29019;Brest;UU29701;Brest;D029;Finistère;A14;Rennes;R53;Bretagne;R53;Bretagne;;3 rue Matthieu Gallou;;;29200;Brest;France;;;;;;;;;;;;;
Mz286;Université de Pau et des Pays de l'Adour;;UPPA;Université;Université pluridisciplinaire hors santé;public;Nouvelle-Aquitaine>Bordeaux>Pyrénées-Atlantiques>Pau;43.31372;-0.36509;0640251A;;Q572968;01/01/1971;Décret n° 70-1174 du 17 décembre 1970 portant érection en établissements publics à caractère scientifique et culturel d'universités et centres universitaires;https://www.legifrance.gouv.fr/jorf/id/JORFTEXT000000511402/;64445;Pau;UU64701;Pau;D064;Pyrénées-Atlantiques;A04;Bordeaux;R75;Nouvelle-Aquitaine;R72;Aquitaine;;Avenue de l’Université;;BP 576;64012;Pau CEDEX;France;11076;11079;11000;11003;11454;11413;11775;11753;12222.0;12619.0;13138.0;12836.0;12108.0
H3nOd;Université de Technologie de Compiègne;;UTC;École;;public;Hauts-de-France>Amiens>Oise>Compiègne;49.40024;2.800108;0601223D;;Q622906;02/10/1972;;;60159;Compiègne;UU60502;Compiègne;D060;Oise;A20;Amiens;R32;Hauts-de-France;R22;Picardie;;Rue du docteur Schweitzer;;CS 60319;60203;Compiègne CEDEX;France;3799;3955;4050;4052;3974;3940;4182;4301;4291.0;4343.0;4219.0;4359.0;4367.0
vLcx0;Centre national des arts du cirque;CNAC;;École;;privé;Grand Est>Reims>Marne>Châlons-en-Champagne;48.95119;4.36256;0511931X;;Q2945947;;;;51108;Châlons-en-Champagne;UU51501;Châlons-en-Champagne;D051;Marne;A19;Reims;R44;Grand Est;R21;Champagne-Ardenne;;1 rue DU CIRQUE;;;51000;CHALONS EN CHAMPAGNE;France;;;;;;;;;;;;;
gFP1V;Excelia Group;Excelia;;École;;privé;Nouvelle-Aquitaine>Poitiers>Charente-Maritime>La Rochelle;46.14069;-1.15616;0171427J;;Q3578436;1988;;;17300;La Rochelle;UU17601;La Rochelle;D017;Charente-Maritime;A13;Poitiers;R75;Nouvelle-Aquitaine;R54;Poitou-Charentes;;102 rue de Coureilles;;;17000;La Rochelle;France;;;;;;;;;;;;;
3F8N1;Institut d'ingénierie informatique de Limoges;3IL;;École;;privé;Nouvelle-Aquitaine>Limoges>Haute-Vienne>Limoges;45.81879933351791;1.2718766927719118;0870997L;;Q3151931;06/01/1987;;;87085;Limoges;UU87601;Limoges;D087;Haute-Vienne;A22;Limoges;R75;Nouvelle-Aquitaine;R74;Limousin;;43 rue Sainte Anne;;BP 834;87015;Limoges;France;;;;;;;;;;;;;
TeXD3;Institut national des sciences appliquées de Rouen Normandie;INSA de Rouen Normandie;INSA Rouen Normandie;École;;public;Normandie>Seine-Maritime>Rouen>Saint-Étienne-du-Rouvray;49.3852;1.06839;0760165S;;Q1665112;1985;;;76575;Saint-Étienne-du-Rouvray;UU00755;Rouen;D076;Seine-Maritime;A70;Normandie;R28;Normandie;R23;Haute-Normandie;;685 avenue de l'Université;;BP 08;76801;Saint-Étienne-du-Rouvray CEDEX;France;1673;1689;1693;1746;1760;1775;1867;1949;1978.0;2021.0;2048.0;2044.0;2003.0
6b2we;Université Marie et Louis Pasteur;;UMLP;Université;Université pluridisciplinaire avec santé;public;Bourgogne-Franche-Comté>Besançon>Doubs>Besançon;47.240643;6.02313;0252044L;"0251985X;0251215K";;01/12/2024;;;25056;Besançon;UU25601;Besançon;D025;Doubs;A03;Besançon;R27;Bourgogne-Franche-Comté;R43;Franche-Comté;;rue claude goudimel;;;25000;Besançon;France;;;;;;;;;;;;;
qUCQp;Nantes Université;;NU;Université;Université pluridisciplinaire avec santé;public;Pays de la Loire>Nantes>Loire-Atlantique>Nantes;47.209413;-1.555908;0442953W;0440984F;Q259388;04/10/2021;Décret n° 2021-1290 du 1er octobre 2021 portant création de Nantes Université et approbation de ses statuts;https://www.legifrance.gouv.fr/jorf/id/JORFTEXT000044155976/;44109;Nantes;UU44701;Nantes;D044;Loire-Atlantique;A17;Nantes;R52;Pays de la Loire;R52;Pays de la Loire;;1 quai de Tourville;;;44000;Nantes;France;;;;;;;;;;;;43089.0;41188.0
RS4WF;CY Cergy Paris Université;;CYU;Université;Université pluridisciplinaire hors santé;public;Île-de-France>Versailles>Val-d'Oise>Paris>Cergy;49.03889;2.07415;0952259P;"0952199Z;0951623Y;0951793H";Q74452784;01/11/2019;Décret n° 2019-1095 du 28 octobre 2019 portant création de CY Cergy Paris Université et approbation de ses statuts;https://www.legifrance.gouv.fr/jorf/id/JORFTEXT000039287925/;95127;Cergy;UU00851;Paris;D095;Val-d'Oise;A25;Versailles;R11;Île-de-France;R11;Île-de-France;;33 boulevard du Port;;;95011;Cergy-Pontoise CEDEX;France;;;;;;;;;;24808.0;25823.0;26069.0;23569.0
56aH3;École nationale des travaux publics de l'État;;ENTPE;École;;public;Auvergne-Rhône-Alpes>Lyon>Rhône>Lyon>Vaulx-en-Velin;45.77840382390363;4.92339849472046;0692566P;;Q3578157;1954;;;69256;Vaulx-en-Velin;UU00760;Lyon;D069;Rhône;A10;Lyon;R84;Auvergne-Rhône-Alpes;R82;Rhône-Alpes;;3 Rue Maurice Audin;;;69256;Vaulx-en-Velin CEDEX;France;;;;;;;;;;;;;
jYUcF;Arts et Métiers Sciences et Technologies;Arts et Métiers;ENSAM;Grand établissement;;public;Île-de-France>Paris>Paris 13e;48.83357;2.35831;0753237L;;Q2570220;1780;;;75113;Paris 13e;UU00851;Paris;D075;Paris;A01;Paris;R11;Île-de-France;R11;Île-de-France;;151 boulevard de l'hôpital;;;75013;Paris;France;5286;5522;5635;5726;5703;5645;5742;5884;5925.0;6030.0;6055.0;5906.0;5830.0
42Fay;École supérieure d'art et de design d'Amiens;Ésad Amiens;;École;;public;Hauts-de-France>Amiens>Somme>Amiens;49.90229;2.29326;0801367B;;Q3578393;;;;80021;Amiens;UU80601;Amiens;D080;Somme;A20;Amiens;R32;Hauts-de-France;R22;Picardie;;40  RUE DES TEINTURIERS;;;80080;AMIENS;France;;;;;;;;;;;;;
977ni;ICN Business School;;ICN;École;;privé;Grand Est>Nancy-Metz>Meurthe-et-Moselle>Nancy;48.67419;6.17029;0542455A;;Q3146547;1905;;;54395;Nancy;UU54701;Nancy;D054;Meurthe-et-Moselle;A12;Nancy-Metz;R44;Grand Est;R41;Lorraine;;86 rue du Sergent Blandan;;;54003;Nancy;France;;;;;;;;;;;;;
64Dyl;Institut catholique de Toulouse;;ICT;École;;privé;Occitanie>Toulouse>Haute-Garonne>Toulouse;43.59529;1.44233;0310155A;;Q1479987;1876;;;31555;Toulouse;UU00758;Toulouse;D031;Haute-Garonne;A16;Toulouse;R76;Occitanie;R73;Midi-Pyrénées;;31 rue de la Fonderie;;BP 7012;31068;Toulouse CEDEX 7;France;;;;;;;;;;;;;
0XJbA;Institut d'économie scientifique et de gestion;IÉSEG;;École;;privé;Hauts-de-France>Lille>Nord>Lille;50.63538;3.04488;0593202K;;Q3156522;1964;;;59350;Lille;UU59702;Lille;D059;Nord;A09;Lille;R32;Hauts-de-France;R31;Nord-Pas-de-Calais;;3 rue de la Digue;;;59800;Lille;France;;;;;;;;;;;;;
A2hM0;Institut des relations publiques et de la communication d’Angers;Ircom;IRCOM;École;;privé;Pays de la Loire>Nantes>Maine-et-Loire>Angers>Les Ponts-de-Cé;47.44304;-0.53222;0492062A;;Q74181405;1984;;;49246;Les Ponts-de-Cé;UU49701;Angers;D049;Maine-et-Loire;A17;Nantes;R52;Pays de la Loire;R52;Pays de la Loire;;23 rue Edouard Guinel;;CS 10059;49136;Les Ponts-de-Cé CEDEX;France;;;;;;;;;;;;;
G12bB;École supérieure des technologies et des affaires de Belfort;ESTA Belfort;;École;;privé;Bourgogne-Franche-Comté>Besançon>Territoire de Belfort>Belfort;47.6403207998;6.86085341826;0900362E;;Q3578507;1986-09;;;90010;Belfort;UU00558;Belfort;D090;Territoire de Belfort;A03;Besançon;R27;Bourgogne-Franche-Comté;R43;Franche-Comté;;3 rue DU DR FRERY;;CS50199;90004;BELFORT CEDEX;France;;;;;;;;;;;;;
XR16q;Conservatoire national des arts et métiers;;CNAM;Grand établissement;;public;Île-de-France>Paris>Paris 3e;48.86675796735145;2.3554462194442753;0753471R;;Q524289;1794;;;75103;Paris 3e;UU00851;Paris;D075;Paris;A01;Paris;R11;Île-de-France;R11;Île-de-France;;292 rue Saint-Martin;;;75141;Paris Cedex 03;France;;;;;;;;;;;;;
4i3C4;École nationale supérieure d'architecture de Paris-La Villette;ENSAPLV;;École;;public;Île-de-France>Paris>Paris 19e;48.89325;2.38192;0751875F;;Q3578185;;;;75119;Paris 19e;UU00851;Paris;D075;Paris;A01;Paris;R11;Île-de-France;R11;Île-de-France;;144  RUE DE FLANDRE;;;75019;PARIS;France;;;;;;;;;;;;;
WjVHD;École nationale supérieure d'informatique pour l'industrie et l'entreprise;;ENSIIE;École;;public;Île-de-France>Versailles>Essonne>Paris>Évry-Courcouronnes;48.6262;2.43202;0912266U;;Q3578204;01/08/2006;Décret n° 2006-805 du 5 juillet 2006 portant création d'une Ecole nationale supérieure d'informatique pour l'industrie et l'entreprise;https://www.legifrance.gouv.fr/jorf/id/JORFTEXT000000788862/;91228;Évry-Courcouronnes;UU00851;Paris;D091;Essonne;A25;Versailles;R11;Île-de-France;R11;Île-de-France;;1 square de la résistance;;;91025;Évry-Courcouronnes Cedex;France;411;394;451;492;567;596;617;565;541.0;522.0;534.0;517.0;516.0
19ezc;École supérieure des sciences commerciales d'Angers;;ESSCA;École;;privé;Pays de la Loire>Nantes>Maine-et-Loire>Angers;47.47636;-0.60065;0490076S;;Q3578499;01/01/1909;;;49007;Angers;UU49701;Angers;D049;Maine-et-Loire;A17;Nantes;R52;Pays de la Loire;R52;Pays de la Loire;;1 rue Joseph Lakanal;;BP 40348;49003;Angers CEDEX 01;France;;;;;;;;;;;;;
3SqE2;Institut catholique de Rennes;;ICR;École;;privé;Bretagne>Rennes>Ille-et-Vilaine>Rennes>Bruz;48.04855;-1.74461;0352349N;;Q3151862;1989;;;35047;Bruz;UU35701;Rennes;D035;Ille-et-Vilaine;A14;Rennes;R53;Bretagne;R53;Bretagne;;RUE BLAISE PASCAL;CAMPUS DE KER LANN;;35170;BRUZ;France;;;;;;;;;;;;;
FDijq;Institut national d'histoire de l'art;;INHA;Grand établissement;;public;Île-de-France>Paris>Paris 2e;48.866499;2.338842;0755026F;;Q3152376;15/07/2001;Décret no 2001-621 du 12 juillet 2001 portant création de l'Institut national d'histoire de l'art;https://www.legifrance.gouv.fr/jorf/id/JORFTEXT000000222679/;75102;Paris 2e;UU00851;Paris;D075;Paris;A01;Paris;R11;Île-de-France;R11;Île-de-France;;2 rue Vivienne;;;75002;Paris;France;;;;;;;;;;;;;
Hm42K;Institut national universitaire Jean-François Champollion;INU Albi;INUC;Autre établissement;Université pluridisciplinaire hors santé;public;Occitanie>Toulouse>Tarn>Albi;43.92;2.139;0811293R;;Q929515;18/04/2002;Décret n° 2002-522 du 16 avril 2002 relatif au centre universitaire de formation et de recherche du Nord-Est Midi-Pyrénées Jean-François-Champollion;https://www.legifrance.gouv.fr/jorf/id/JORFTEXT000000223183/;81004;Albi;UU81502;Albi;D081;Tarn;A16;Toulouse;R76;Occitanie;R73;Midi-Pyrénées;;Place de Verdun;;;81012;Albi CEDEX 9;France;2835;2978;3315;3525;3735;3844;3693;3505;3769.0;3790.0;3897.0;3742.0;3667.0
f2wCi;Institut polytechnique des sciences avancées;IPSA;;École;;privé;Île-de-France>Créteil>Val-de-Marne>Paris>Ivry-sur-Seine;48.814007;2.393909;0942144V;;Q183213;01/09/1963;;;94041;Ivry-sur-Seine;UU00851;Paris;D094;Val-de-Marne;A24;Créteil;R11;Île-de-France;R11;Île-de-France;;15 rue MAURICE GRANDCOING;;;94200;IVRY SUR SEINE;France;;;;;;;;;;;;;
5HerM;MBS;;;École;;privé;Occitanie>Montpellier>Hérault>Montpellier;43.621491;3.833542;0340137P;;Q3117571;1992;;;34172;Montpellier;UU34701;Montpellier;D034;Hérault;A11;Montpellier;R76;Occitanie;R91;Languedoc-Roussillon;;2300 AVENUE DES MOULINS;;;34185;MONTPELLIER CEDEX 4;France;;;;;;;;;;;;;
PpsCQ;Université Paris sciences et lettres;Université PSL;PSL;Grand établissement;Université pluridisciplinaire hors santé;public;Île-de-France>Paris>Paris 6e;48.85464;2.33785;0756036D;0755700N;Q1163431;07/11/2019;Décret n° 2019-1130 du 5 novembre 2019 portant création de l'Université Paris sciences et lettres (Université PSL) et approbation de ses statuts;https://www.legifrance.gouv.fr/jorf/id/JORFTEXT000039323049/;75106;Paris 6e;UU00851;Paris;D075;Paris;A01;Paris;R11;Île-de-France;R11;Île-de-France;;60 rue Mazarine;;;75006;Paris;France;;;;;;;;;;17583.0;17549.0;17646.0;17959.0
54VTe;Centrale Lille Institut;;CLI;École;;public;Hauts-de-France>Lille>Nord>Lille>Villeneuve-d'Ascq;50.60648;3.13757;"0597139P;0590349J";;Q273461;1854;;;59009;Villeneuve-d'Ascq;UU59702;Lille;D059;Nord;A09;Lille;R32;Hauts-de-France;R31;Nord-Pas-de-Calais;;Cité scientifique;;CS 20048;59651;Villeneuve-d'Ascq CEDEX;France;1449;1438;1495;1562;1595;1658;1605;1644;1668.0;2086.0;2144.0;1613.0;2272.0
YMJiz;École d'ingénieur d'agro-développement international;ISTOM;;École;;privé;Pays de la Loire>Nantes>Maine-et-Loire>Angers;47.4776;-0.60052;"0951808Z;0492466P";;Q3577763;1908;;;49007;Angers;UU49701;Angers;D049;Maine-et-Loire;A17;Nantes;R52;Pays de la Loire;R52;Pays de la Loire;;4 rue Lakanal;;;49000;Angers;France;;;;;;;;;;;;;
NgNNI;École nationale supérieure d'architecture de Paris-Belleville;ENSAPB;;École;;public;Île-de-France>Paris>Paris 19e;48.87529688720956;2.3746132850646977;0751877H;;Q3578187;1969;;;75119;Paris 19e;UU00851;Paris;D075;Paris;A01;Paris;R11;Île-de-France;R11;Île-de-France;;60 boulevard de la Villette;;;75019;Paris;France;;;;;;;;;;;;;
tdEpy;École nationale supérieure de l'électronique et de ses applications de Cergy;;ENSEA;École;;public;Île-de-France>Versailles>Val-d'Oise>Paris>Cergy;49.03937306943779;2.0727896690368657;0951376E;;Q2707341;1975;;;95127;Cergy;UU00851;Paris;D095;Val-d'Oise;A25;Versailles;R11;Île-de-France;R11;Île-de-France;;6 avenue du Ponceau;;;95014;Cergy Pontoise CEDEX;France;798;821;809;826;837;861;878;869;850.0;837.0;864.0;874.0;840.0
qjZCR;École pour l'informatique et les techniques avancées;EPITA;;École;;privé;Île-de-France>Créteil>Val-de-Marne>Paris>Le Kremlin-Bicêtre;48.815598;2.362943;0942095S;;Q1702850;1984;;;94043;Le Kremlin-Bicêtre;UU00851;Paris;D094;Val-de-Marne;A24;Créteil;R11;Île-de-France;R11;Île-de-France;;14 rue Voltaire;;;94276;LE KREMLIN BICETRE CEDEX;France;;;;;;;;;;;;;
dQaK0;Sciences Po Toulouse;IEP de Toulouse;IEP Toulouse;Autre établissement;;public;Occitanie>Toulouse>Haute-Garonne>Toulouse;43.605603;1.431672;0310133B;;Q1664755;04/05/1948;;;31555;Toulouse;UU00758;Toulouse;D031;Haute-Garonne;A16;Toulouse;R76;Occitanie;R73;Midi-Pyrénées;;21 allée de Brienne;;;31000;Toulouse;France;1587;1592;1542;1543;1447;1477;1428;1444;1406.0;1453.0;1474.0;1591.0;1635.0
Z2FY5;Université de la Nouvelle-Calédonie;;UNC;Université;Université pluridisciplinaire hors santé;public;Collectivités d'outre-mer>Nouvelle-Calédonie>Nouméa;-22.26356;166.40405;9830445S;9840303G;Q734332;02/06/1999;Décret no 99-445 du 31 mai 1999 portant création de l'université de la Polynésie française et de l'université de la Nouvelle-Calédonie;https://www.legifrance.gouv.fr/jorf/id/JORFTEXT000000394929/;98818;Nouméa;TOM98818;Nouméa;D988;Nouvelle-Calédonie;A40;Nouvelle-Calédonie;R00;Collectivités d'outre-mer;R00;Collectivités d'outre-mer;Campus de Nouville;145 avenue James Cook;;BP R4;98851;Nouméa CEDEX;France;2528;2392;2481;2618;2854;2854;2966;3098;3009.0;3260.0;3611.0;3621.0;3436.0
cqkij;Université de Tours;Université Tours;;Université;Université pluridisciplinaire avec santé;public;Centre-Val de Loire>Orléans-Tours>Indre-et-Loire>Tours;47.38376;0.67367;0370800U;;Q494335;01/01/1971;Décret n° 70-1174 du 17 décembre 1970 portant érection en établissements publics à caractère scientifique et culturel d'universités et centres universitaires;https://www.legifrance.gouv.fr/jorf/id/JORFTEXT000000511402/;37261;Tours;UU37701;Tours;D037;Indre-et-Loire;A18;Orléans-Tours;R24;Centre-Val de Loire;R24;Centre-Val de Loire;;60 rue du Plat d'Étain;;BP 12050;37020;Tours CEDEX 1;France;21850;22545;23068;22907;23482;23518;24185;24938;25172.0;25637.0;26197.0;26413.0;24394.0
z3hdL;Université des Antilles;;;Université;Université pluridisciplinaire avec santé;public;Guadeloupe>Pointe-à-Pitre-Les Abymes>Pointe-à-Pitre;16.22505;-61.53016;9710585J;9710585J;Q16682075;01/01/2015;LOI n° 2015-737 du 25 juin 2015 portant transformation de l'université des Antilles et de la Guyane en université des Antilles, ratifiant diverses ordonnances relatives à l'enseignement supérieur et à la recherche et portant diverses dispositions relatives à l'enseignement supérieur;https://www.legifrance.gouv.fr/jorf/id/JORFTEXT000030784348/;97120;Pointe-à-Pitre;UU9A701;Pointe-à-Pitre-Les Abymes;D971;Guadeloupe;A32;Guadeloupe;R01;Guadeloupe;R01;Guadeloupe;;;Campus universitaire de Fouillole;BP 250;97157;Pointe-à-Pitre CEDEX;France;;;;;10650;11089;10673;10755;10651.0;10985.0;12067.0;12135.0;11281.0
RN4E6;Université d'Évry-Val-d'Essonne;;UEVE;Université;Université pluridisciplinaire hors santé;public;Île-de-France>Versailles>Essonne>Paris>Évry-Courcouronnes;48.62425;2.42738;0911975C;;Q1531014;26/07/1991;Décret no 91-707 du 22 juillet 1991 portant création et organisation provisoire de l'université d'Evry-Val d'Essonne;https://www.legifrance.gouv.fr/jorf/id/JORFTEXT000000539149/;91228;Évry-Courcouronnes;UU00851;Paris;D091;Essonne;A25;Versailles;R11;Île-de-France;R11;Île-de-France;;Boulevard François Mitterrand;;;91000;Évry-Courcouronnes;France;9443;9539;9270;8780;9044;9691;8493;8877;9238.0;9461.0;7116.0;6958.0;6328.0
Dy569;ISEN Yncréa Méditerranée;Yncréa Méditerranée;;École;;privé;Provence-Alpes-Côte d'Azur>Nice>Var>Toulon;43.12073;5.93921;0831458J;;Q51652036;;;;83137;Toulon;UU00757;Toulon;D083;Var;A23;Nice;R93;Provence-Alpes-Côte d'Azur;R93;Provence-Alpes-Côte d'Azur;Maison du Numérique et de l’Innovation;Place Georges Pompidou;;;83000;Toulon;France;;;;;;;;;;;;;
hSppL;Audencia Business School;Audencia;;École;;privé;Pays de la Loire>Nantes>Loire-Atlantique>Nantes;47.20614754106199;-1.5749502182006836;0440112H;;Q1968395;1900;;;44109;Nantes;UU44701;Nantes;D044;Loire-Atlantique;A17;Nantes;R52;Pays de la Loire;R52;Pays de la Loire;;4 rue Bisson;;BP90517;44105;Nantes CEDEX 4;France;;;;;;;;;;;;;
y52D7;École des hautes études en sciences sociales;;EHESS;Grand établissement;;public;Île-de-France>Paris>Paris 6e;48.850176;2.326849;0753742K;;Q273518;23/01/1975;;;75106;Paris 6e;UU00851;Paris;D075;Paris;A01;Paris;R11;Île-de-France;R11;Île-de-France;;54 boulevard Raspail;;;75006;PARIS;France;2689;2733;2576;2712;2773;2845;3026;3153;3085.0;2970.0;2917.0;2753.0;2613.0
ZCWyO;École nationale supérieure de formation de l’enseignement agricole;;ENSFEA;École;;public;Occitanie>Toulouse>Haute-Garonne>Toulouse>Castanet-Tolosan;43.534875;1.486908;0310143M;;Q3578119;;;;31113;Castanet-Tolosan;UU00758;Toulouse;D031;Haute-Garonne;A16;Toulouse;R76;Occitanie;R73;Midi-Pyrénées;;2 route de Narbonne;AUZEVILLE-TOLOSANE;BP 82687;31326;CASTANET TOLOSAN CEDEX;France;;;;;;;;;;;;;
FIi41;École supérieure d'art et design Le Havre-Rouen;ESADHaR;;École;;public;Normandie>Seine-Maritime>Rouen;49.44816;1.13727;0762687H;;Q21427194;;;;76540;Rouen;UU00755;Rouen;D076;Seine-Maritime;A70;Normandie;R28;Normandie;R23;Haute-Normandie;;2  RUE GIUSEPPE VERDI;;;76000;ROUEN;France;;;;;;;;;;;;;
Q6uOU;BUILDERS École d'ingénieurs;BUILDERS Caen;;École;;privé;Normandie>Calvados>Caen>Épron;49.2163;-0.366436;0142182W;;Q3578414;1993;;;14242;Épron;UU14701;Caen;D014;Calvados;A70;Normandie;R28;Normandie;R25;Basse-Normandie;Campus 2;1 rue Pierre et Marie Curie;;;14610;Épron;France;;;;;;;;;;;;;
Bf1tY;Hautes études d'ingénieur;;HEI;École;;privé;Hauts-de-France>Lille>Nord>Lille;50.633728;3.04502;0590348H;0590353N;Q3128626;1885;;;59350;Lille;UU59702;Lille;D059;Nord;A09;Lille;R32;Hauts-de-France;R31;Nord-Pas-de-Calais;;13 rue de Toul;;BP 41290;59014;Lille CEDEX;France;;;;;;;;;;;;;
IAJOc;Skema Business School;Skema;;École;;privé;Hauts-de-France>Lille>Nord>Lille;50.63642;3.07581;0590346F;;Q3486229;18/11/2009;;;59350;Lille;UU59702;Lille;D059;Nord;A09;Lille;R32;Hauts-de-France;R31;Nord-Pas-de-Calais;;Avenue Willy Brandt;;;59777;Euralille;France;;;;;;;;;;;;;
5cZyU;Université Paris Cité;UP Cité;;Université;Université scientifique et/ou médicale;public;Île-de-France>Paris>Paris 6e;48.851906;2.340105;0755976N;"0751721N;0751723R";Q55849612;22/03/2019;Décret n° 2019-209 du 20 mars 2019 portant création de l'université de Paris et approbation de ses statuts;https://www.legifrance.gouv.fr/jorf/id/JORFTEXT000038252458/;75106;Paris 6e;UU00851;Paris;D075;Paris;A01;Paris;R11;Île-de-France;R11;Île-de-France;;85 boulevard Saint-Germain;;;75006;Paris;France;;;;;;;;;;53979.0;51591.0;56099.0;58242.0
8j5s2;Université de Picardie Jules-Verne;;UPJV;Université;Université pluridisciplinaire avec santé;public;Hauts-de-France>Amiens>Somme>Amiens;49.87584;2.26446;0801344B;;Q947747;01/01/1971;Décret n° 70-1174 du 17 décembre 1970 portant érection en établissements publics à caractère scientifique et culturel d'universités et centres universitaires;https://www.legifrance.gouv.fr/jorf/id/JORFTEXT000000511402/;80021;Amiens;UU80601;Amiens;D080;Somme;A20;Amiens;R32;Hauts-de-France;R22;Picardie;;Chemin du Thil;;CS 52501;80025;AMIENS CEDEX 1;France;21803;22266;23046;23386;24478;26269;26931;27825;28303.0;28626.0;28441.0;28658.0;27267.0
57OsX;Université de Reims Champagne-Ardenne;URCA;URCA;Université;Université pluridisciplinaire avec santé;public;Grand Est>Reims>Marne>Reims;49.23278;4.00825;0511296G;;Q2496149;01/01/1971;Décret n° 70-1174 du 17 décembre 1970 portant érection en établissements publics à caractère scientifique et culturel d'universités et centres universitaires;https://www.legifrance.gouv.fr/jorf/id/JORFTEXT000000511402/;51454;Reims;UU51701;Reims;D051;Marne;A19;Reims;R44;Grand Est;R21;Champagne-Ardenne;;2 avenue Robert Schuman;;;51724;Reims CEDEX;France;21006;20798;21110;22454;23510;24890;23552;23364;23730.0;24431.0;25026.0;24780.0;23628.0
jHA81;Ecole de l'air et de l'espace;;;Grand établissement;;public;Provence-Alpes-Côte d'Azur>Aix-Marseille>Bouches-du-Rhône>Salon-de-Provence;43.624652;5.111764;0130230E;;Q3577870;1935;;;13103;Salon-de-Provence;UU13501;Salon-de-Provence;D013;Bouches-du-Rhône;A02;Aix-Marseille;R93;Provence-Alpes-Côte d'Azur;R93;Provence-Alpes-Côte d'Azur;BASE AERIENNNE 701;CHEMIN DE SAINT JEAN;;;13661;SALON AIR CEDEX;France;;;;;;;;;;;;;
1UWns;EIGSI La Rochelle;;EIGSI;École;;privé;Nouvelle-Aquitaine>Poitiers>Charente-Maritime>La Rochelle;46.13977;-1.15462;0171435T;;Q3577771;01/09/1990;;;17300;La Rochelle;UU17601;La Rochelle;D017;Charente-Maritime;A13;Poitiers;R75;Nouvelle-Aquitaine;R54;Poitou-Charentes;;26 rue de Vaux de Foletier;;;17041;La Rochelle CEDEX 1;France;;;;;;;;;;;;;
TSGYA;École française d'Extrême-Orient;;EFEO;Autre établissement;;public;Île-de-France>Paris>Paris 16e;48.86451;2.2922;0751794T;;Q273559;1898;;;75116;Paris 16e;UU00851;Paris;D075;Paris;A01;Paris;R11;Île-de-France;R11;Île-de-France;;22 avenue du Président Wilson;;;75116;Paris;France;;;;;;;;;;;;;
44xxV;École nationale des ponts et chaussées;;ENPC;Grand établissement;;public;Île-de-France>Créteil>Seine-et-Marne>Paris>Champs-sur-Marne;48.8411;2.58822;"0772517T;0753501Y";;Q273523;1747;;;77083;Champs-sur-Marne;UU00851;Paris;D077;Seine-et-Marne;A24;Créteil;R11;Île-de-France;R11;Île-de-France;Cité Descartes;6 et 8 avenue Blaise Pascal;;;77455;Marne-la-Vallée CEDEX 2;France;;;;;;;;;;;;;
b2TCC;École nationale vétérinaire, agroalimentaire et de l'alimentation, Nantes-Atlantique;;ONIRIS;Grand établissement;;public;Pays de la Loire>Nantes>Loire-Atlantique>Nantes;47.28936365193973;-1.5242886543273928;0441916U;"0441916U;0441679L";Q3578268;01/01/2010;;;44109;Nantes;UU44701;Nantes;D044;Loire-Atlantique;A17;Nantes;R52;Pays de la Loire;R52;Pays de la Loire;;101 route de Gachet;;CS 40706;44307;Nantes CEDEX 03;France;;;;;;;;;;;;;
mMex4;Toulouse INP;Toulouse INP;INPT;École;;public;Occitanie>Toulouse>Haute-Garonne>Toulouse;43.55539;1.50391;0311381H;;Q3152453;1969;;;31555;Toulouse;UU00758;Toulouse;D031;Haute-Garonne;A16;Toulouse;R76;Occitanie;R73;Midi-Pyrénées;;6 allée Emile Monso;;BP 34038;31029;Toulouse CEDEX 4;France;3498;3559;3530;3616;3653;3681;3762;3751;3881.0;3988.0;4083.0;4158.0;4148.0
S88MV;Bordeaux INP;;IPB;Grand établissement;;public;Nouvelle-Aquitaine>Bordeaux>Gironde>Bordeaux>Talence;44.80572;-0.60506;0333232J;;Q3152470;01/04/2009;Décret n° 2009-329 du 25 mars 2009 créant l'Institut polytechnique de Bordeaux;https://www.legifrance.gouv.fr/jorf/id/JORFTEXT000020439985/;33522;Talence;UU33701;Bordeaux;D033;Gironde;A04;Bordeaux;R75;Nouvelle-Aquitaine;R72;Aquitaine;;Avenue des facultés;;;33405;Talence;France;1893;2056;2196;2331;2371;2347;2385;2466;2448.0;2584.0;2567.0;2622.0;2612.0
k5Ryn;Institut textile et chimique;ITECH;;École;;privé;Auvergne-Rhône-Alpes>Lyon>Rhône>Lyon>Écully;45.7860356236494;4.767680168151856;0693364G;;Q3152645;1988;;;69081;Écully;UU00760;Lyon;D069;Rhône;A10;Lyon;R84;Auvergne-Rhône-Alpes;R82;Rhône-Alpes;;87 Chemin des Mouilles;;;69134;Écully CEDEX;France;;;;;;;;;;;;;
